{"version":0.6,"generator":"Overpass API 0.7.61.5 4133829e","osm3s":{"timestamp_osm_base":"2023-08-16T11:10:44Z","copyright":"The data included in this document is from www.openstreetmap.org. The data is made available under ODbL."},"elements":[{"type":"node","id":961043933,"lat":37.9956321,"lon":23.7323274,"tags":{"crossing":"marked","crossing:markings":"yes","highway":"crossing"}},{"type":"node","id":961043940,"lat":37.9955765,"lon":23.7323636,"tags":{"button_operated":"no","crossing":"traffic_signals","highway":"crossing","traffic_signals:sound":"no","traffic_signals:vibration":"no"}},{"type":"node","id":961044024,"lat":37.9957702,"lon":23.732243,"tags":{"highway":"traffic_signals"}},{"type":"node","id":961044052,"lat":37.9956491,"lon":23.7322133,"tags":{"crossing":"marked","crossing:markings":"yes","highway":"crossing"}},{"type":"node","id":961044069,"lat":37.9956075,"lon":23.7321581,"tags":{"crossing":"traffic_signals","highway":"crossing"}},{"type":"node","id":4386145429,"lat":37.9961432,"lon":23.7325632,"tags":{"addr:city":"\u0391\u03b8\u03ae\u03bd\u03b1","addr:housenumber":"104","addr:street":"28\u03b7\u03c2 \u039f\u03ba\u03c4\u03c9\u03b2\u03c1\u03af\u03bf\u03c5","amenity":"pharmacy","healthcare":"pharmacy"}},{"type":"node","id":4678765918,"lat":37.995958,"lon":23.7325337,"tags":{"name":"Celestino","opening_hours":"Fr 10:00-21:00; Sa 10:00-18:00; Su closed; Mo 10:00-18:00; Tu 10:00-21:00; We 10:00-18:00; Th 10:00-21:00","phone":"21 0825 0843","shop":"clothes","website":"https:\/\/www.celestino.gr\/"}},{"type":"node","id":4678765922,"lat":37.9956373,"lon":23.7329035,"tags":{"shop":"copyshop"}},{"type":"node","id":4692122734,"lat":37.9956769,"lon":23.7325858,"tags":{"addr:city":"\u0391\u03b8\u03ae\u03bd\u03b1","addr:housenumber":"18","addr:postcode":"11257","addr:street":"\u039a\u03bf\u03b4\u03c1\u03b9\u03b3\u03ba\u03c4\u03ce\u03bd\u03bf\u03c2","amenity":"fast_food","drive_through":"no","name":"Oui madame"}},{"type":"node","id":4789438958,"lat":37.995621,"lon":23.7329871,"tags":{"amenity":"fast_food","name":"dp"}},{"type":"node","id":5168714320,"lat":37.9956917,"lon":23.7324595,"tags":{"addr:city":"\u0391\u03b8\u03ae\u03bd\u03b1","addr:housenumber":"96","addr:street":"\u03a0\u03b1\u03c4\u03b7\u03c3\u03af\u03c9\u03bd","clothes":"men","name":"Berto Lucci","shop":"clothes"}},{"type":"node","id":5513918580,"lat":37.996184,"lon":23.7321921,"tags":{"addr:city":"\u0391\u03b8\u03ae\u03bd\u03b1","addr:housenumber":"109","addr:street":"\u03a0\u03b1\u03c4\u03b7\u03c3\u03af\u03c9\u03bd","clothes":"women","name":"Positivo","shop":"clothes"}},{"type":"node","id":5684066961,"lat":37.9961324,"lon":23.7321778,"tags":{"addr:city":"\u0391\u03b8\u03ae\u03bd\u03b1","addr:housenumber":"109","addr:street":"\u03a0\u03b1\u03c4\u03b7\u03c3\u03af\u03c9\u03bd","name":"Thiros","sex":"female","shop":"bag"}},{"type":"node","id":6262295020,"lat":37.9955637,"lon":23.7324475,"tags":{"highway":"traffic_signals","traffic_signals":"signal"}},{"type":"node","id":6571158131,"lat":37.9956732,"lon":23.7326334,"tags":{"addr:city":"\u0391\u03b8\u03ae\u03bd\u03b1","addr:housenumber":"18","addr:postcode":"11257","addr:street":"\u039a\u03bf\u03b4\u03c1\u03b9\u03b3\u03ba\u03c4\u03ce\u03bd\u03bf\u03c2","amenity":"cafe","name":"lp"}},{"type":"node","id":7003854156,"lat":37.9957427,"lon":23.7324668,"tags":{"addr:city":"\u0391\u03b8\u03ae\u03bd\u03b1","addr:housenumber":"96","addr:street":"28\u03b7\u03c2 \u039f\u03ba\u03c4\u03c9\u03b2\u03c1\u03af\u03bf\u03c5","name":"Digitech","shop":"mobile_phone"}},{"type":"node","id":9859072096,"lat":37.9956547,"lon":23.7327566,"tags":{"addr:city":"\u0391\u03b8\u03ae\u03bd\u03b1","addr:housenumber":"16","addr:street":"\u039a\u03bf\u03b4\u03c1\u03b9\u03b3\u03ba\u03c4\u03ce\u03bd\u03bf\u03c2"}},{"type":"node","id":9912478060,"lat":37.9959749,"lon":23.7328006,"tags":{"natural":"tree"}},{"type":"node","id":9919260552,"lat":37.9955767,"lon":23.7327993,"tags":{"amenity":"bench","backrest":"no","colour":"grey","seats":"3"}},{"type":"node","id":9949018205,"lat":37.9955816,"lon":23.7327534,"tags":{"amenity":"bench","backrest":"no","colour":"grey","seats":"3"}},{"type":"node","id":9949018206,"lat":37.99559,"lon":23.7326945,"tags":{"amenity":"bench","backrest":"no","colour":"grey","seats":"3"}},{"type":"node","id":9950783118,"lat":37.9958931,"lon":23.7327952,"tags":{"natural":"tree"}},{"type":"node","id":10178218616,"lat":37.9957834,"lon":23.7324725,"tags":{"addr:city":"\u0391\u03b8\u03ae\u03bd\u03b1","addr:housenumber":"96","addr:street":"28\u03b7\u03c2 \u039f\u03ba\u03c4\u03c9\u03b2\u03c1\u03af\u03bf\u03c5","name":"MGL","shop":"jewelry"}},{"type":"node","id":10178226794,"lat":37.996092,"lon":23.7325592,"tags":{"name":"\u039a\u03b1\u03c3\u03b9\u03bc\u03ac\u03c4\u03b7\u03c2","shop":"optician"}},{"type":"node","id":10178228256,"lat":37.9960517,"lon":23.7321411,"tags":{"amenity":"atm"}},{"type":"node","id":10798752567,"lat":37.9961055,"lon":23.7326399,"tags":{"addr:city":"\u0391\u03b8\u03ae\u03bd\u03b1","addr:housenumber":"102-106","addr:street":"28\u03b7\u03c2 \u039f\u03ba\u03c4\u03c9\u03b2\u03c1\u03af\u03bf\u03c5"}}]}