{"version":0.6,"generator":"Overpass API 0.7.61.5 4133829e","osm3s":{"timestamp_osm_base":"2023-08-16T11:08:40Z","copyright":"The data included in this document is from www.openstreetmap.org. The data is made available under ODbL."},"elements":[{"type":"node","id":952058759,"lat":37.996564,"lon":23.7269571,"tags":{"alt_name:fr":"\u00c1gios Pantele\u00edmonas","name":"\u0386\u03b3\u03b9\u03bf\u03c2 \u03a0\u03b1\u03bd\u03c4\u03b5\u03bb\u03b5\u03ae\u03bc\u03bf\u03bd\u03b1\u03c2","name:el":"\u0386\u03b3\u03b9\u03bf\u03c2 \u03a0\u03b1\u03bd\u03c4\u03b5\u03bb\u03b5\u03ae\u03bc\u03bf\u03bd\u03b1\u03c2","name:en":"Agios Panteleimonas","name:fr":"Saint-Pantal\u00e9on","place":"neighbourhood","wikidata":"Q394004","wikipedia":"el:\u0386\u03b3\u03b9\u03bf\u03c2 \u03a0\u03b1\u03bd\u03c4\u03b5\u03bb\u03b5\u03ae\u03bc\u03bf\u03bd\u03b1\u03c2 (\u0391\u03b8\u03ae\u03bd\u03b1)"}},{"type":"node","id":1753890118,"lat":37.9963267,"lon":23.7262223,"tags":{"addr:city":"\u0391\u03b8\u03ae\u03bd\u03b1","addr:country":"GR","addr:housenumber":"11","addr:postcode":"10440","addr:street":"\u0391\u03b3\u03bf\u03c1\u03b1\u03ba\u03c1\u03af\u03c4\u03bf\u03c5"}},{"type":"node","id":1753890145,"lat":37.9964919,"lon":23.7262476,"tags":{"addr:city":"\u0391\u03b8\u03ae\u03bd\u03b1","addr:country":"GR","addr:housenumber":"2","addr:postcode":"10446","addr:street":"\u0391\u03b3\u03bf\u03c1\u03b1\u03ba\u03c1\u03af\u03c4\u03bf\u03c5"}},{"type":"node","id":1766175860,"lat":37.9962694,"lon":23.7262956,"tags":{"addr:city":"\u0391\u03b8\u03ae\u03bd\u03b1","addr:country":"GR","addr:housenumber":"85","addr:postcode":"10440","addr:street":"\u0391\u03bb\u03ba\u03b9\u03b2\u03b9\u03ac\u03b4\u03bf\u03c5"}},{"type":"node","id":4376589221,"lat":37.9963671,"lon":23.7266871,"tags":{"addr:city":"\u0391\u03b8\u03ae\u03bd\u03b1","shop":"kiosk"}},{"type":"node","id":6360448058,"lat":37.9965333,"lon":23.7266706,"tags":{"amenity":"fountain"}},{"type":"node","id":7438786903,"lat":37.9964745,"lon":23.726386,"tags":{"highway":"stop"}},{"type":"node","id":8926959313,"lat":37.9962769,"lon":23.726974,"tags":{"bus":"yes","highway":"bus_stop","name":"\u03a0\u039b. \u0391\u0393. \u03a0\u0391\u039d\u03a4\u0395\u039b\u0395\u0397\u039c\u039f\u039d\u0391","public_transport":"platform","ref":"061607"}}]}