{"version":0.6,"generator":"Overpass API 0.7.61.5 4133829e","osm3s":{"timestamp_osm_base":"2023-08-16T11:08:40Z","copyright":"The data included in this document is from www.openstreetmap.org. The data is made available under ODbL."},"elements":[{"type":"node","id":1434352151,"lat":37.9988106,"lon":23.7264566,"tags":{"addr:street":"\u03a1\u03b5\u03bc\u03bf\u03cd\u03bd\u03b4\u03bf\u03c5"}},{"type":"node","id":1758398434,"lat":37.9988437,"lon":23.726256,"tags":{"addr:city":"\u0391\u03b8\u03ae\u03bd\u03b1","addr:country":"GR","addr:housenumber":"11","addr:postcode":"10446","addr:street":"\u03a0\u03b5\u03c1\u03b3\u03ac\u03bc\u03bf\u03c5"}},{"type":"node","id":1758398545,"lat":37.9987846,"lon":23.7269229,"tags":{"addr:city":"\u0391\u03b8\u03ae\u03bd\u03b1","addr:country":"GR","addr:housenumber":"5","addr:postcode":"10446","addr:street":"\u03a0\u03b5\u03c1\u03b3\u03ac\u03bc\u03bf\u03c5"}},{"type":"node","id":1758398575,"lat":37.9988289,"lon":23.7266824,"tags":{"addr:city":"\u0391\u03b8\u03ae\u03bd\u03b1","addr:country":"GR","addr:housenumber":"7","addr:postcode":"10446","addr:street":"\u03a0\u03b5\u03c1\u03b3\u03ac\u03bc\u03bf\u03c5"}},{"type":"node","id":1758398601,"lat":37.9988297,"lon":23.726508,"tags":{"addr:city":"\u0391\u03b8\u03ae\u03bd\u03b1","addr:country":"GR","addr:housenumber":"9","addr:postcode":"10446","addr:street":"\u03a0\u03b5\u03c1\u03b3\u03ac\u03bc\u03bf\u03c5"}},{"type":"node","id":5970157633,"lat":37.9984551,"lon":23.7268355,"tags":{"addr:city":"\u0391\u03b8\u03ae\u03bd\u03b1","addr:country":"GR","addr:housenumber":"106","addr:postcode":"10446","addr:street":"\u0391\u03bb\u03ba\u03b9\u03b2\u03b9\u03ac\u03b4\u03bf\u03c5"}},{"type":"node","id":7326069586,"lat":37.9988671,"lon":23.7263659,"tags":{"highway":"stop"}},{"type":"node","id":7617508303,"lat":37.9987765,"lon":23.7262744,"tags":{"addr:city":"\u0391\u03b8\u03ae\u03bd\u03b1","addr:housenumber":"23","addr:street":"\u03a1\u03b5\u03bc\u03bf\u03cd\u03bd\u03b4\u03bf\u03c5"}},{"type":"node","id":7863023282,"lat":37.9988168,"lon":23.7266232,"tags":{"addr:city":"\u0391\u03b8\u03ae\u03bd\u03b1","addr:housenumber":"7","addr:street":"\u03a0\u03b5\u03c1\u03b3\u03ac\u03bc\u03bf\u03c5","shop":"convenience"}},{"type":"node","id":7864530042,"lat":37.9987911,"lon":23.7267175,"tags":{"addr:city":"\u0391\u03b8\u03ae\u03bd\u03b1","addr:housenumber":"119","addr:street":"\u0391\u03bb\u03ba\u03b9\u03b2\u03b9\u03ac\u03b4\u03bf\u03c5"}}]}