{"version":0.6,"generator":"Overpass API 0.7.61.5 4133829e","osm3s":{"timestamp_osm_base":"2023-08-16T11:23:06Z","copyright":"The data included in this document is from www.openstreetmap.org. The data is made available under ODbL."},"elements":[{"type":"node","id":1628331665,"lat":37.9935467,"lon":23.7302127,"tags":{"addr:city":"\u0391\u03b8\u03ae\u03bd\u03b1","addr:country":"GR","addr:housenumber":"89","addr:postcode":"10434","addr:street":"3\u03b7\u03c2 \u03a3\u03b5\u03c0\u03c4\u03b5\u03bc\u03b2\u03c1\u03af\u03bf\u03c5"}},{"type":"node","id":7947695783,"lat":37.9938324,"lon":23.7302992,"tags":{"addr:housenumber":"95"}},{"type":"node","id":7947705772,"lat":37.9940953,"lon":23.7303759,"tags":{"addr:housenumber":"99"}},{"type":"node","id":10284223195,"lat":37.9936167,"lon":23.7299677,"tags":{"addr:city":"\u0391\u03b8\u03ae\u03bd\u03b1","addr:housenumber":"4","addr:street":"\u03a0\u03bb\u03b1\u03c4\u03b5\u03af\u03b1 \u039a\u03c5\u03c1\u03b9\u03b1\u03ba\u03bf\u03cd"}},{"type":"node","id":10284247937,"lat":37.9935406,"lon":23.7300758,"tags":{"addr:city":"\u0391\u03b8\u03ae\u03bd\u03b1","addr:housenumber":"2","addr:street":"\u03a0\u03bb\u03b1\u03c4\u03b5\u03af\u03b1 \u039a\u03c5\u03c1\u03b9\u03b1\u03ba\u03bf\u03cd"}},{"type":"node","id":10963661937,"lat":37.9936425,"lon":23.7302142,"tags":{"addr:city":"\u0391\u03b8\u03ae\u03bd\u03b1","addr:housenumber":"91","addr:street":"3\u03b7\u03c2 \u03a3\u03b5\u03c0\u03c4\u03b5\u03bc\u03b2\u03c1\u03af\u03bf\u03c5","shop":"books"}}]}