{"version":0.6,"generator":"Overpass API 0.7.61.5 4133829e","osm3s":{"timestamp_osm_base":"2023-08-16T11:25:12Z","copyright":"The data included in this document is from www.openstreetmap.org. The data is made available under ODbL."},"elements":[{"type":"node","id":251083098,"lat":37.9995293,"lon":23.7228229,"tags":{"int_name":"Attiki","name":"\u0391\u03c4\u03c4\u03b9\u03ba\u03ae","name:de":"Attiki","name:el":"\u0391\u03c4\u03c4\u03b9\u03ba\u03ae","name:en":"Attiki","name:fr":"Attiki","name:ru":"\u0410\u0442\u0442\u0438\u043a\u0438 (\u0441\u0442\u0430\u043d\u0446\u0438\u044f \u043c\u0435\u0442\u0440\u043e)","public_transport":"stop_position","railway":"stop","subway":"yes","wheelchair":"yes"}},{"type":"node","id":663730537,"lat":37.9994409,"lon":23.7233505,"tags":{"name":"\u0391\u03c4\u03c4\u03b9\u03ba\u03ae","name:de":"Attiki","name:el":"\u0391\u03c4\u03c4\u03b9\u03ba\u03ae","name:en":"Attiki","name:fr":"Attiki","name:ru":"\u0410\u0442\u0442\u0438\u043a\u0438 (\u0441\u0442\u0430\u043d\u0446\u0438\u044f \u043c\u0435\u0442\u0440\u043e)","railway":"subway_entrance","wheelchair":"yes"}},{"type":"node","id":960915768,"lat":37.9991545,"lon":23.7228107,"tags":{"railway":"switch"}},{"type":"node","id":1749680579,"lat":37.9992424,"lon":23.7235034,"tags":{"addr:city":"\u0391\u03b8\u03ae\u03bd\u03b1","addr:country":"GR","addr:housenumber":"52","addr:postcode":"10446","addr:street":"\u0391\u03b4\u03bc\u03ae\u03c4\u03bf\u03c5"}},{"type":"node","id":1758398534,"lat":37.9990297,"lon":23.7234927,"tags":{"addr:city":"\u0391\u03b8\u03ae\u03bd\u03b1","addr:country":"GR","addr:housenumber":"41","addr:postcode":"10446","addr:street":"\u03a0\u03b5\u03c1\u03b3\u03ac\u03bc\u03bf\u03c5"}},{"type":"node","id":1758398562,"lat":37.999185,"lon":23.72355,"tags":{"addr:city":"\u0391\u03b8\u03ae\u03bd\u03b1","addr:country":"GR","addr:housenumber":"60","addr:postcode":"10446","addr:street":"\u03a0\u03b5\u03c1\u03b3\u03ac\u03bc\u03bf\u03c5"}},{"type":"node","id":1956875655,"lat":37.9995283,"lon":23.722839,"tags":{"int_name":"Attiki","name":"\u0391\u03c4\u03c4\u03b9\u03ba\u03ae","name:de":"Attiki","name:el":"\u0391\u03c4\u03c4\u03b9\u03ba\u03ae","name:en":"Attiki","name:fr":"Attiki","name:ru":"\u0410\u0442\u0442\u0438\u043a\u0438 (\u0441\u0442\u0430\u043d\u0446\u0438\u044f \u043c\u0435\u0442\u0440\u043e)","network":"\u039c\u03b5\u03c4\u03c1\u03cc \u0391\u03b8\u03ae\u03bd\u03b1\u03c2","operator":"\u03a3\u03a4\u0391\u03a3\u03a5","public_transport":"station","railway":"station","station":"subway","subway":"yes","wheelchair":"yes","wikidata":"Q2454978","wikipedia":"el:\u03a3\u03c4\u03b1\u03b8\u03bc\u03cc\u03c2 \u0391\u03c4\u03c4\u03b9\u03ba\u03ae\u03c2 (\u039c\u03b5\u03c4\u03c1\u03cc \u0391\u03b8\u03ae\u03bd\u03b1\u03c2)"}},{"type":"node","id":2973313516,"lat":37.9995276,"lon":23.7228526,"tags":{"int_name":"Attiki","name":"\u0391\u03c4\u03c4\u03b9\u03ba\u03ae","name:de":"Attiki","name:el":"\u0391\u03c4\u03c4\u03b9\u03ba\u03ae","name:en":"Attiki","name:fr":"Attiki","name:ru":"\u0410\u0442\u0442\u0438\u043a\u0438 (\u0441\u0442\u0430\u043d\u0446\u0438\u044f \u043c\u0435\u0442\u0440\u043e)","public_transport":"stop_position","railway":"stop","subway":"yes","wheelchair":"yes"}},{"type":"node","id":4639607192,"lat":37.9991548,"lon":23.7234693,"tags":{"addr:city":"\u0391\u03b8\u03ae\u03bd\u03b1","addr:housenumber":"52","addr:street":"\u0391\u03b4\u03bc\u03ae\u03c4\u03bf\u03c5","name":"Homemade Bakery Shop","shop":"bakery"}},{"type":"node","id":4639614974,"lat":37.9996081,"lon":23.7235183,"tags":{"addr:city":"\u0391\u03b8\u03ae\u03bd\u03b1","addr:housenumber":"60","addr:street":"\u0391\u03b4\u03bc\u03ae\u03c4\u03bf\u03c5","name":"\u03a6\u03c1\u03bf\u03c5\u03c4\u03bf\u03c0\u03b7\u03b3\u03ae","shop":"greengrocer"}},{"type":"node","id":4642442901,"lat":37.9995234,"lon":23.7232614,"tags":{"amenity":"atm","brand":"\u03a4\u03c1\u03ac\u03c0\u03b5\u03b6\u03b1 \u03a0\u03b5\u03b9\u03c1\u03b1\u03b9\u03ce\u03c2","brand:el":"\u03a4\u03c1\u03ac\u03c0\u03b5\u03b6\u03b1 \u03a0\u03b5\u03b9\u03c1\u03b1\u03b9\u03ce\u03c2","brand:en":"Piraeus Bank","brand:wikidata":"Q3312","brand:wikipedia":"en:Piraeus Bank","currency:EUR":"yes","name":"\u03a4\u03c1\u03ac\u03c0\u03b5\u03b6\u03b1 \u03a0\u03b5\u03b9\u03c1\u03b1\u03b9\u03ce\u03c2","name:el":"\u03a4\u03c1\u03ac\u03c0\u03b5\u03b6\u03b1 \u03a0\u03b5\u03b9\u03c1\u03b1\u03b9\u03ce\u03c2","name:en":"Piraeus Bank","operator":"\u03a4\u03c1\u03ac\u03c0\u03b5\u03b6\u03b1 \u03a0\u03b5\u03b9\u03c1\u03b1\u03b9\u03ce\u03c2","operator:wikidata":"Q3312","operator:wikipedia":"en:Piraeus Bank","short_name":"\u03a0\u03b5\u03b9\u03c1\u03b1\u03b9\u03ce\u03c2","short_name:el":"\u03a0\u03b5\u03b9\u03c1\u03b1\u03b9\u03ce\u03c2","short_name:en":"Piraeus"}},{"type":"node","id":5199937660,"lat":37.9990011,"lon":23.7235551,"tags":{"addr:city":"\u0391\u03b8\u03ae\u03bd\u03b1","addr:housenumber":"41","addr:street":"\u03a0\u03b5\u03c1\u03b3\u03ac\u03bc\u03bf\u03c5","shop":"convenience"}},{"type":"node","id":5454246329,"lat":37.9989711,"lon":23.7234662,"tags":{"addr:city":"\u0391\u03b8\u03ae\u03bd\u03b1","addr:housenumber":"50","addr:street":"\u0391\u03b4\u03bc\u03ae\u03c4\u03bf\u03c5","shop":"clothes"}},{"type":"node","id":6853608422,"lat":37.9994623,"lon":23.7230424,"tags":{"addr:city":"\u0391\u03b8\u03ae\u03bd\u03b1","amenity":"fast_food","name":"DL"}},{"type":"node","id":8926959314,"lat":37.9994611,"lon":23.7234086,"tags":{"bus":"yes","public_transport":"stop_position"}},{"type":"node","id":8926959315,"lat":37.9994596,"lon":23.7234351,"tags":{"bench":"no","bin":"no","bus":"yes","highway":"bus_stop","lit":"no","name":"\u03a3\u03a4. \u0397\u03a3\u0391\u03a0 \u0391\u03a4\u03a4\u0399\u039a\u0397","public_transport":"platform","ref":"060881","shelter":"no"}}]}