{"version":0.6,"generator":"Overpass API 0.7.61.5 4133829e","osm3s":{"timestamp_osm_base":"2023-08-16T10:56:13Z","copyright":"The data included in this document is from www.openstreetmap.org. The data is made available under ODbL."},"elements":[{"type":"node","id":805901966,"lat":37.9486587,"lon":23.6677601,"tags":{"highway":"crossing"}},{"type":"node","id":805902005,"lat":37.9477369,"lon":23.6666301,"tags":{"highway":"crossing"}},{"type":"node","id":805902104,"lat":37.9490106,"lon":23.6667313,"tags":{"crossing":"uncontrolled","highway":"crossing"}},{"type":"node","id":805902461,"lat":37.94778,"lon":23.6665053,"tags":{"highway":"crossing"}},{"type":"node","id":1702620963,"lat":37.9485711,"lon":23.6670955,"tags":{"alt_name:fr":"N\u00e9o F\u00e1liro","int_name":"Neo Faliro","name":"\u039d\u03ad\u03bf \u03a6\u03ac\u03bb\u03b7\u03c1\u03bf","name:el":"\u039d\u03ad\u03bf \u03a6\u03ac\u03bb\u03b7\u03c1\u03bf","name:en":"Neo Faliro","name:fr":"Nouveau-Phal\u00e8re","name:tr":"Yeni Falire","place":"suburb"}},{"type":"node","id":3686779579,"lat":37.9481289,"lon":23.6677855,"tags":{"barrier":"motorcycle_barrier"}},{"type":"node","id":3686779588,"lat":37.9481883,"lon":23.6676312,"tags":{"barrier":"motorcycle_barrier"}},{"type":"node","id":3732386653,"lat":37.9480939,"lon":23.6662651,"tags":{"addr:city":"\u03a0\u03b5\u03b9\u03c1\u03b1\u03b9\u03ac\u03c2","addr:neighborhood":"\u039d\u03ad\u03bf \u03a6\u03ac\u03bb\u03b7\u03c1\u03bf","addr:street":"\u03a7\u03c1\u03c5\u03c3\u03bf\u03c3\u03c4\u03cc\u03bc\u03bf\u03c5 \u03a3\u03bc\u03cd\u03c1\u03bd\u03b7\u03c2","amenity":"pharmacy","healthcare":"pharmacy","name":"\u039b\u03b5\u03b2\u03b5\u03bd\u03c4\u03ac\u03ba\u03b7\u03c2 \u03a3\u03c5\u03bc\u03b5\u03ce\u03bd"}},{"type":"node","id":6120044369,"lat":37.9487487,"lon":23.6677486,"tags":{"addr:housenumber":"45","addr:street":"\u0394\u03b1\u03b2\u03ac\u03ba\u03b7 - \u03a0\u03af\u03bd\u03b4\u03bf\u03c5"}}]}