{"version":0.6,"generator":"Overpass API 0.7.61.5 4133829e","osm3s":{"timestamp_osm_base":"2023-08-16T11:17:53Z","copyright":"The data included in this document is from www.openstreetmap.org. The data is made available under ODbL."},"elements":[{"type":"node","id":961484719,"lat":37.9948097,"lon":23.7306629,"tags":{"highway":"crossing"}},{"type":"node","id":1240998963,"lat":37.9944764,"lon":23.7309712,"tags":{"amenity":"parking"}},{"type":"node","id":1628331250,"lat":37.994765,"lon":23.7305,"tags":{"addr:city":"\u0391\u03b8\u03ae\u03bd\u03b1","addr:country":"GR","addr:housenumber":"107","addr:postcode":"10434","addr:street":"3\u03b7\u03c2 \u03a3\u03b5\u03c0\u03c4\u03b5\u03bc\u03b2\u03c1\u03af\u03bf\u03c5"}},{"type":"node","id":1628331295,"lat":37.994743,"lon":23.7308274,"tags":{"addr:city":"\u0391\u03b8\u03ae\u03bd\u03b1","addr:country":"GR","addr:housenumber":"116","addr:postcode":"10434","addr:street":"3\u03b7\u03c2 \u03a3\u03b5\u03c0\u03c4\u03b5\u03bc\u03b2\u03c1\u03af\u03bf\u03c5"}},{"type":"node","id":1741489592,"lat":37.9947609,"lon":23.7308738,"tags":{"addr:city":"\u0391\u03b8\u03ae\u03bd\u03b1","addr:country":"GR","addr:housenumber":"25","addr:postcode":"10434","addr:street":"\u0394\u03b5\u03c1\u03b9\u03b3\u03bd\u03cd"}},{"type":"node","id":1741489594,"lat":37.9948047,"lon":23.7304389,"tags":{"addr:city":"\u0391\u03b8\u03ae\u03bd\u03b1","addr:country":"GR","addr:housenumber":"27","addr:postcode":"10434","addr:street":"\u0394\u03b5\u03c1\u03b9\u03b3\u03bd\u03cd"}},{"type":"node","id":6279912228,"lat":37.9947942,"lon":23.730659,"tags":{"highway":"traffic_signals","traffic_signals":"signal"}},{"type":"node","id":6279912229,"lat":37.994871,"lon":23.7305671,"tags":{"highway":"traffic_signals","traffic_signals":"signal"}}]}