{"version":0.6,"generator":"Overpass API 0.7.61.5 4133829e","osm3s":{"timestamp_osm_base":"2023-08-16T11:30:26Z","copyright":"The data included in this document is from www.openstreetmap.org. The data is made available under ODbL."},"elements":[{"type":"node","id":1434352124,"lat":37.9934148,"lon":23.724806,"tags":{"addr:city":"\u0391\u03b8\u03ae\u03bd\u03b1","addr:housenumber":"25","addr:street":"\u03a0\u03b1\u03b9\u03c9\u03bd\u03af\u03bf\u03c5","brand":"\u0393\u03b1\u03bb\u03b1\u03be\u03af\u03b1\u03c2","brand:el":"\u0393\u03b1\u03bb\u03b1\u03be\u03af\u03b1\u03c2","brand:en":"Galaxias","brand:wikidata":"Q5518063","brand:wikipedia":"el:\u0393\u03b1\u03bb\u03b1\u03be\u03af\u03b1\u03c2 (\u03c3\u03bf\u03cd\u03c0\u03b5\u03c1 \u03bc\u03ac\u03c1\u03ba\u03b5\u03c4)","name":"\u0393\u03b1\u03bb\u03b1\u03be\u03af\u03b1\u03c2","name:de":"Galaxias","name:el":"\u0393\u03b1\u03bb\u03b1\u03be\u03af\u03b1\u03c2","name:en":"Galaxias","opening_hours":"Mo-Fr 08:00-21:00; Sa 08:00-20:00; Su closed","opening_hours:covid19":"Mo-Fr 08:00-20:30; Sa 08:00-20:00; Su closed","phone":"2108846270","shop":"supermarket"}},{"type":"node","id":1628420169,"lat":37.9929697,"lon":23.7250709,"tags":{"addr:city":"\u0391\u03b8\u03ae\u03bd\u03b1","addr:country":"GR","addr:housenumber":"41","addr:postcode":"10440","addr:street":"\u039c\u03b9\u03c7\u03b1\u03ae\u03bb \u0392\u03cc\u03b4\u03b1"}},{"type":"node","id":1628420181,"lat":37.9931301,"lon":23.7250565,"tags":{"addr:city":"\u0391\u03b8\u03ae\u03bd\u03b1","addr:country":"GR","addr:housenumber":"43","addr:postcode":"10440","addr:street":"\u039c\u03b9\u03c7\u03b1\u03ae\u03bb \u0392\u03cc\u03b4\u03b1"}},{"type":"node","id":1628420190,"lat":37.9934306,"lon":23.7250757,"tags":{"addr:city":"\u0391\u03b8\u03ae\u03bd\u03b1","addr:country":"GR","addr:housenumber":"49","addr:postcode":"10440","addr:street":"\u039c\u03b9\u03c7\u03b1\u03ae\u03bb \u0392\u03cc\u03b4\u03b1"}},{"type":"node","id":1628420195,"lat":37.9928482,"lon":23.7252471,"tags":{"addr:city":"\u0391\u03b8\u03ae\u03bd\u03b1","addr:country":"GR","addr:housenumber":"50","addr:postcode":"10440","addr:street":"\u039c\u03b9\u03c7\u03b1\u03ae\u03bb \u0392\u03cc\u03b4\u03b1"}},{"type":"node","id":1628420209,"lat":37.9932874,"lon":23.7252781,"tags":{"addr:city":"\u0391\u03b8\u03ae\u03bd\u03b1","addr:country":"GR","addr:housenumber":"58","addr:postcode":"10440","addr:street":"\u039c\u03b9\u03c7\u03b1\u03ae\u03bb \u0392\u03cc\u03b4\u03b1"}},{"type":"node","id":2475332232,"lat":37.9929933,"lon":23.7244554,"tags":{"addr:city":"\u0391\u03b8\u03ae\u03bd\u03b1","addr:country":"GR","addr:housenumber":"38","addr:postcode":"10440","addr:street":"\u0391\u03bb\u03ba\u03b1\u03bc\u03ad\u03bd\u03bf\u03c5\u03c2"}},{"type":"node","id":2475332233,"lat":37.9931292,"lon":23.7244541,"tags":{"addr:city":"\u0391\u03b8\u03ae\u03bd\u03b1","addr:country":"GR","addr:housenumber":"38\u0391","addr:postcode":"10440","addr:street":"\u0391\u03bb\u03ba\u03b1\u03bc\u03ad\u03bd\u03bf\u03c5\u03c2"}},{"type":"node","id":2475332237,"lat":37.9932746,"lon":23.7244689,"tags":{"addr:city":"\u0391\u03b8\u03ae\u03bd\u03b1","addr:country":"GR","addr:housenumber":"40","addr:postcode":"10440","addr:street":"\u0391\u03bb\u03ba\u03b1\u03bc\u03ad\u03bd\u03bf\u03c5\u03c2"}},{"type":"node","id":2475332239,"lat":37.9934216,"lon":23.7244753,"tags":{"addr:city":"\u0391\u03b8\u03ae\u03bd\u03b1","addr:country":"GR","addr:housenumber":"42","addr:postcode":"10440","addr:street":"\u0391\u03bb\u03ba\u03b1\u03bc\u03ad\u03bd\u03bf\u03c5\u03c2"}},{"type":"node","id":7343042423,"lat":37.9935134,"lon":23.7252622,"tags":{"highway":"traffic_signals","traffic_signals":"signal"}},{"type":"node","id":7343042424,"lat":37.9934615,"lon":23.725201,"tags":{"highway":"traffic_signals","traffic_signals":"signal"}},{"type":"node","id":7343063360,"lat":37.9930307,"lon":23.725096,"tags":{"direction":"forward","highway":"stop"}},{"type":"node","id":10284332017,"lat":37.9933718,"lon":23.7246596,"tags":{"addr:city":"\u0391\u03b8\u03ae\u03bd\u03b1","addr:housenumber":"25","addr:street":"\u03a0\u03b1\u03b9\u03c9\u03bd\u03af\u03bf\u03c5"}},{"type":"node","id":10700707586,"lat":37.9934307,"lon":23.7252777,"tags":{"addr:city":"\u0391\u03b8\u03ae\u03bd\u03b1","addr:housenumber":"19","addr:street":"\u03a0\u03b1\u03b9\u03c9\u03bd\u03af\u03bf\u03c5","shop":"convenience"}}]}