{"version":0.6,"generator":"Overpass API 0.7.61.5 4133829e","osm3s":{"timestamp_osm_base":"2023-08-16T11:05:30Z","copyright":"The data included in this document is from www.openstreetmap.org. The data is made available under ODbL."},"elements":[{"type":"node","id":1649205839,"lat":37.9985357,"lon":23.7304427,"tags":{"addr:city":"\u0391\u03b8\u03ae\u03bd\u03b1","addr:country":"GR","addr:housenumber":"160","addr:postcode":"11251","addr:street":"\u0391\u03c1\u03b9\u03c3\u03c4\u03bf\u03c4\u03ad\u03bb\u03bf\u03c5\u03c2"}},{"type":"node","id":1758398547,"lat":37.9983971,"lon":23.7310367,"tags":{"addr:city":"\u0391\u03b8\u03ae\u03bd\u03b1","addr:country":"GR","addr:housenumber":"50","addr:postcode":"11251","addr:street":"\u0399\u03b8\u03ac\u03ba\u03b7\u03c2"}},{"type":"node","id":1758398551,"lat":37.9984366,"lon":23.7307856,"tags":{"addr:city":"\u0391\u03b8\u03ae\u03bd\u03b1","addr:country":"GR","addr:housenumber":"52","addr:postcode":"11251","addr:street":"\u0399\u03b8\u03ac\u03ba\u03b7\u03c2"}},{"type":"node","id":1758398556,"lat":37.9984841,"lon":23.7304874,"tags":{"addr:city":"\u0391\u03b8\u03ae\u03bd\u03b1","addr:country":"GR","addr:housenumber":"58","addr:postcode":"11251","addr:street":"\u0399\u03b8\u03ac\u03ba\u03b7\u03c2"}},{"type":"node","id":1758398578,"lat":37.9983124,"lon":23.7304335,"tags":{"addr:city":"\u0391\u03b8\u03ae\u03bd\u03b1","addr:country":"GR","addr:housenumber":"71","addr:postcode":"11251","addr:street":"\u0399\u03b8\u03ac\u03ba\u03b7\u03c2"}},{"type":"node","id":8062992555,"lat":37.9983597,"lon":23.7308755,"tags":{"highway":"stop"}}]}