{"version":0.6,"generator":"Overpass API 0.7.61.5 4133829e","osm3s":{"timestamp_osm_base":"2023-08-16T11:19:00Z","copyright":"The data included in this document is from www.openstreetmap.org. The data is made available under ODbL."},"elements":[{"type":"node","id":1753890112,"lat":37.9947732,"lon":23.7273206,"tags":{"name":"Aman","shop":"supermarket"}},{"type":"node","id":1753890114,"lat":37.9948383,"lon":23.727322,"tags":{"name":"Abutaliab","shop":"convenience"}},{"type":"node","id":1753890265,"lat":37.9944639,"lon":23.7273218,"tags":{"addr:city":"\u0391\u03b8\u03ae\u03bd\u03b1","addr:country":"GR","addr:housenumber":"94","addr:postcode":"10434","addr:street":"\u0391\u03c7\u03b1\u03c1\u03bd\u03ce\u03bd","name":"New Xenia","shop":"bed"}},{"type":"node","id":2560172135,"lat":37.9945907,"lon":23.7271655,"tags":{"bus":"yes","public_transport":"stop_position","trolleybus":"yes"}},{"type":"node","id":3148871018,"lat":37.9945959,"lon":23.727073,"tags":{"bus":"yes","highway":"bus_stop","name":"\u03a7\u0395\u03a5\u0394\u0395\u039d","network":"\u039f\u0391\u03a3\u0391","network:el":"\u039f\u0391\u03a3\u0391","network:en":"OASA","network:wikidata":"Q1814382","operator":"\u039f\u0391\u03a3\u0391","public_transport":"platform","ref":"060920","shelter":"yes","trolleybus":"yes"}},{"type":"node","id":4591318778,"lat":37.994351,"lon":23.7273257,"tags":{"addr:city":"\u0391\u03b8\u03ae\u03bd\u03b1","addr:housenumber":"94","addr:street":"\u0391\u03c7\u03b1\u03c1\u03bd\u03ce\u03bd","shop":"convenience"}},{"type":"node","id":4744422623,"lat":37.9947962,"lon":23.7270348,"tags":{"shop":"convenience"}},{"type":"node","id":4782419421,"lat":37.9947313,"lon":23.7270336,"tags":{"name":"Probin","shop":"hairdresser"}},{"type":"node","id":4824478235,"lat":37.9947048,"lon":23.7272483,"tags":{"addr:city":"\u0391\u03b8\u03ae\u03bd\u03b1","addr:housenumber":"100","addr:street":"\u0391\u03c7\u03b1\u03c1\u03bd\u03ce\u03bd","amenity":"post_box"}},{"type":"node","id":4824478950,"lat":37.9946181,"lon":23.7272805,"tags":{"shop":"clothes"}},{"type":"node","id":6219437474,"lat":37.9944289,"lon":23.7270134,"tags":{"amenity":"fuel","brand":"EKO","brand:wikidata":"Q111604691","brand:wikipedia":"el:\u0395\u03bb\u03bb\u03b7\u03bd\u03b9\u03ba\u03ac \u03a0\u03b5\u03c4\u03c1\u03ad\u03bb\u03b1\u03b9\u03b1","name":"EKO","operator":"\u03a6\u039f\u03a1 \u0395\u03a3 \u0395.\u0395."}},{"type":"node","id":7343159297,"lat":37.9948419,"lon":23.7270866,"tags":{"direction":"forward","highway":"stop"}},{"type":"node","id":7687903844,"lat":37.9942473,"lon":23.7272747,"tags":{"name":"Sky router","shop":"travel_agency"}},{"type":"node","id":8785242854,"lat":37.9943057,"lon":23.7272335,"tags":{"highway":"stop"}},{"type":"node","id":9524443605,"lat":37.9945291,"lon":23.7270134,"tags":{"name":"Nasser Al Saidi","shop":"convenience"}},{"type":"node","id":9524487791,"lat":37.9944976,"lon":23.7270139,"tags":{"amenity":"fast_food","name":"\u0391\u03c1\u03b9\u03c3\u03c4\u03bf\u03bd"}},{"type":"node","id":9524505023,"lat":37.9946992,"lon":23.7270365,"tags":{"name":"Al Ahlam","shop":"gift"}},{"type":"node","id":10156806322,"lat":37.9945246,"lon":23.727326,"tags":{"name":"B1 outlet","shop":"clothes"}},{"type":"node","id":10156860523,"lat":37.9946992,"lon":23.7270264,"tags":{"shop":"gift"}},{"type":"node","id":10162042356,"lat":37.9943609,"lon":23.7274627,"tags":{"addr:city":"\u0391\u03b8\u03ae\u03bd\u03b1","addr:housenumber":"28","addr:street":"\u03a6\u03b9\u03bb\u03b9\u03c0\u03c0\u03af\u03b4\u03bf\u03c5"}},{"type":"node","id":10600929426,"lat":37.9942441,"lon":23.7270746,"tags":{"highway":"crossing"}},{"type":"node","id":10600929427,"lat":37.9948395,"lon":23.727122,"tags":{"highway":"crossing"}},{"type":"node","id":10600929443,"lat":37.9943058,"lon":23.7271821,"tags":{"highway":"crossing"}},{"type":"node","id":10600929444,"lat":37.9946603,"lon":23.7272081,"tags":{"highway":"crossing"}}]}