{"version":0.6,"generator":"Overpass API 0.7.61.5 4133829e","osm3s":{"timestamp_osm_base":"2023-08-16T11:13:45Z","copyright":"The data included in this document is from www.openstreetmap.org. The data is made available under ODbL."},"elements":[{"type":"node","id":358465587,"lat":37.9965563,"lon":23.7337859,"tags":{"highway":"traffic_signals"}},{"type":"node","id":819453380,"lat":37.9963166,"lon":23.7332219,"tags":{"shop":"taxi"}},{"type":"node","id":1749680559,"lat":37.9966726,"lon":23.7336333,"tags":{"addr:city":"\u0391\u03b8\u03ae\u03bd\u03b1","addr:country":"GR","addr:housenumber":"16","addr:postcode":"11257","addr:street":"\u03a0\u03b9\u03c0\u03af\u03bd\u03bf\u03c5"}},{"type":"node","id":1749680560,"lat":37.9965298,"lon":23.733637,"tags":{"addr:city":"\u0391\u03b8\u03ae\u03bd\u03b1","addr:country":"GR","addr:housenumber":"17","addr:postcode":"11257","addr:street":"\u03a0\u03b9\u03c0\u03af\u03bd\u03bf\u03c5"}},{"type":"node","id":1749680561,"lat":37.996707,"lon":23.7333697,"tags":{"addr:city":"\u0391\u03b8\u03ae\u03bd\u03b1","addr:country":"GR","addr:housenumber":"18","addr:postcode":"11257","addr:street":"\u03a0\u03b9\u03c0\u03af\u03bd\u03bf\u03c5"}},{"type":"node","id":1749680562,"lat":37.9965609,"lon":23.7333642,"tags":{"addr:city":"\u0391\u03b8\u03ae\u03bd\u03b1","addr:country":"GR","addr:housenumber":"19","addr:postcode":"11257","addr:street":"\u03a0\u03b9\u03c0\u03af\u03bd\u03bf\u03c5"}},{"type":"node","id":6033508706,"lat":37.996597,"lon":23.7330262,"tags":{"addr:city":"\u0391\u03b8\u03ae\u03bd\u03b1","addr:housenumber":"23","addr:street":"\u03a0\u03b9\u03c0\u03af\u03bd\u03bf\u03c5","name":"Airbnb Pipinou 23","tourism":"apartment"}},{"type":"node","id":9295828802,"lat":37.9965172,"lon":23.7332394,"tags":{"addr:city":"\u0391\u03b8\u03ae\u03bd\u03b1","addr:housenumber":"21","addr:street":"\u03a0\u03b9\u03c0\u03af\u03bd\u03bf\u03c5","shop":"chemist"}},{"type":"node","id":9912580958,"lat":37.9969124,"lon":23.7331872,"tags":{"natural":"tree"}},{"type":"node","id":9931251418,"lat":37.9965559,"lon":23.733275,"tags":{"name":"Re:wear.it","shop":"clothes"}},{"type":"node","id":10118311388,"lat":37.9963856,"lon":23.7338052,"tags":{"amenity":"cafe","name":"\u039f \u039c\u03b9\u03ba\u03b9\u03cc"}},{"type":"node","id":10118337787,"lat":37.996751,"lon":23.7337482,"tags":{"addr:city":"\u0391\u03b8\u03ae\u03bd\u03b1","addr:housenumber":"17","addr:postcode":"11257","addr:street":"\u0399\u03c9\u03ac\u03bd\u03bd\u03bf\u03c5 \u0394\u03c1\u03bf\u03c3\u03bf\u03c0\u03bf\u03cd\u03bb\u03bf\u03c5"}},{"type":"node","id":10118338910,"lat":37.9964628,"lon":23.733843,"tags":{"addr:city":"\u0391\u03b8\u03ae\u03bd\u03b1","addr:housenumber":"16","addr:postcode":"11257","addr:street":"\u0399\u03c9\u03ac\u03bd\u03bd\u03bf\u03c5 \u0394\u03c1\u03bf\u03c3\u03bf\u03c0\u03bf\u03cd\u03bb\u03bf\u03c5"}},{"type":"node","id":10118351942,"lat":37.996484,"lon":23.7336928,"tags":{"addr:city":"\u0391\u03b8\u03ae\u03bd\u03b1","addr:housenumber":"15","addr:postcode":"11257","addr:street":"\u0399\u03c9\u03ac\u03bd\u03bd\u03bf\u03c5 \u0394\u03c1\u03bf\u03c3\u03bf\u03c0\u03bf\u03cd\u03bb\u03bf\u03c5"}},{"type":"node","id":10118354235,"lat":37.9963246,"lon":23.7337955,"tags":{"office":"accountant"}},{"type":"node","id":10118355455,"lat":37.9962557,"lon":23.7336445,"tags":{"healthcare":"laboratory","name":"Life Labs 365"}},{"type":"node","id":10118464094,"lat":37.9965521,"lon":23.7338149,"tags":{"highway":"crossing"}},{"type":"node","id":10118464101,"lat":37.9965622,"lon":23.7337455,"tags":{"highway":"crossing"}},{"type":"node","id":11059749599,"lat":37.9962658,"lon":23.7333236,"tags":{"addr:city":"\u0391\u03b8\u03ae\u03bd\u03b1","addr:housenumber":"26","addr:street":"\u03a4\u03c1\u03bf\u03af\u03b1\u03c2"}}]}