{"version":0.6,"generator":"Overpass API 0.7.61.5 4133829e","osm3s":{"timestamp_osm_base":"2023-08-16T11:06:35Z","copyright":"The data included in this document is from www.openstreetmap.org. The data is made available under ODbL."},"elements":[{"type":"node","id":1649205977,"lat":37.9997954,"lon":23.7293393,"tags":{"addr:city":"\u0391\u03b8\u03ae\u03bd\u03b1","addr:country":"GR","addr:housenumber":"80","addr:postcode":"11251","addr:street":"\u039a\u03b5\u03c6\u03b1\u03bb\u03bb\u03b7\u03bd\u03af\u03b1\u03c2"}},{"type":"node","id":1649205986,"lat":37.9998385,"lon":23.7290903,"tags":{"addr:city":"\u0391\u03b8\u03ae\u03bd\u03b1","addr:country":"GR","addr:housenumber":"84","addr:postcode":"11251","addr:street":"\u039a\u03b5\u03c6\u03b1\u03bb\u03bb\u03b7\u03bd\u03af\u03b1\u03c2"}},{"type":"node","id":1649205992,"lat":37.9996286,"lon":23.7293136,"tags":{"addr:city":"\u0391\u03b8\u03ae\u03bd\u03b1","addr:country":"GR","addr:housenumber":"89","addr:postcode":"11251","addr:street":"\u039a\u03b5\u03c6\u03b1\u03bb\u03bb\u03b7\u03bd\u03af\u03b1\u03c2"}},{"type":"node","id":1649206007,"lat":37.999682,"lon":23.729045,"tags":{"addr:city":"\u0391\u03b8\u03ae\u03bd\u03b1","addr:country":"GR","addr:housenumber":"91","addr:postcode":"11251","addr:street":"\u039a\u03b5\u03c6\u03b1\u03bb\u03bb\u03b7\u03bd\u03af\u03b1\u03c2"}},{"type":"node","id":5713144058,"lat":38.0001592,"lon":23.7293785,"tags":{"addr:city":"\u0391\u03b8\u03ae\u03bd\u03b1","addr:housenumber":"190","addr:street":"\u03a6\u03c5\u03bb\u03ae\u03c2","amenity":"pharmacy","dispensing":"yes","healthcare":"pharmacy"}},{"type":"node","id":5713146030,"lat":37.9999014,"lon":23.7290808,"tags":{"addr:city":"\u0391\u03b8\u03ae\u03bd\u03b1","addr:housenumber":"159","addr:street":"\u03a6\u03c5\u03bb\u03ae\u03c2"}},{"type":"node","id":6111117502,"lat":37.9997879,"lon":23.7292026,"tags":{"highway":"stop"}}]}