{"version":0.6,"generator":"Overpass API 0.7.61.5 4133829e","osm3s":{"timestamp_osm_base":"2023-08-16T11:10:44Z","copyright":"The data included in this document is from www.openstreetmap.org. The data is made available under ODbL."},"elements":[{"type":"node","id":961043984,"lat":37.9961463,"lon":23.7273669,"tags":{"highway":"traffic_signals","traffic_signals":"signal","traffic_signals:direction":"forward"}},{"type":"node","id":1753890105,"lat":37.9961377,"lon":23.7271634,"tags":{"addr:city":"\u0391\u03b8\u03ae\u03bd\u03b1","addr:country":"GR","addr:housenumber":"1","addr:postcode":"10440","addr:street":"\u0391\u03b3\u03bf\u03c1\u03b1\u03ba\u03c1\u03af\u03c4\u03bf\u03c5"}},{"type":"node","id":1753890113,"lat":37.9955759,"lon":23.7270927,"tags":{"addr:city":"\u0391\u03b8\u03ae\u03bd\u03b1","addr:country":"GR","addr:housenumber":"101","addr:postcode":"10440","addr:street":"\u0391\u03c7\u03b1\u03c1\u03bd\u03ce\u03bd"}},{"type":"node","id":1753890117,"lat":37.9960729,"lon":23.7271707,"tags":{"addr:city":"\u0391\u03b8\u03ae\u03bd\u03b1","addr:country":"GR","addr:housenumber":"109","addr:postcode":"10440","addr:street":"\u0391\u03c7\u03b1\u03c1\u03bd\u03ce\u03bd"}},{"type":"node","id":1753890120,"lat":37.9956711,"lon":23.7274294,"tags":{"addr:city":"\u0391\u03b8\u03ae\u03bd\u03b1","addr:country":"GR","addr:housenumber":"112","addr:postcode":"10434","addr:street":"\u0391\u03c7\u03b1\u03c1\u03bd\u03ce\u03bd"}},{"type":"node","id":1753890121,"lat":37.9959181,"lon":23.7274773,"tags":{"addr:city":"\u0391\u03b8\u03ae\u03bd\u03b1","addr:country":"GR","addr:housenumber":"114","addr:postcode":"10434","addr:street":"\u0391\u03c7\u03b1\u03c1\u03bd\u03ce\u03bd"}},{"type":"node","id":1753890123,"lat":37.9961885,"lon":23.7275874,"tags":{"addr:city":"\u0391\u03b8\u03ae\u03bd\u03b1","addr:country":"GR","addr:housenumber":"120","addr:postcode":"10434","addr:street":"\u0391\u03c7\u03b1\u03c1\u03bd\u03ce\u03bd"}},{"type":"node","id":1758398573,"lat":37.9962191,"lon":23.72762,"tags":{"addr:city":"\u0391\u03b8\u03ae\u03bd\u03b1","addr:country":"GR","addr:housenumber":"69","addr:postcode":"10434","addr:street":"\u039a\u03bf\u03b4\u03c1\u03b9\u03b3\u03ba\u03c4\u03ce\u03bd\u03bf\u03c2"}},{"type":"node","id":5181318572,"lat":37.9959358,"lon":23.7271137,"tags":{"addr:city":"\u0391\u03b8\u03ae\u03bd\u03b1","addr:housenumber":"107","addr:street":"\u0391\u03c7\u03b1\u03c1\u03bd\u03ce\u03bd","name":"Bazaar","opening_hours":"Mo-Fr 08:00-21:00; Sa 08:00-20:00; Su closed","opening_hours:covid19":"Mo-Fr 08:00-20:30; Sa 08:00-20:00; Su closed","shop":"supermarket"}},{"type":"node","id":6814329362,"lat":37.9960083,"lon":23.7274934,"tags":{"addr:city":"\u0391\u03b8\u03ae\u03bd\u03b1","addr:housenumber":"116","addr:street":"\u0391\u03c7\u03b1\u03c1\u03bd\u03ce\u03bd","name":"Greek Mobile","shop":"mobile_phone"}},{"type":"node","id":7086940753,"lat":37.9957461,"lon":23.7273786,"tags":{"highway":"stop"}},{"type":"node","id":7687913246,"lat":37.9957496,"lon":23.7270922,"tags":{"addr:city":"\u0391\u03b8\u03ae\u03bd\u03b1","addr:housenumber":"105","addr:street":"\u0391\u03c7\u03b1\u03c1\u03bd\u03ce\u03bd","name":"Vlora","shop":"hairdresser"}},{"type":"node","id":7687921234,"lat":37.9957997,"lon":23.727442,"tags":{"addr:city":"\u0391\u03b8\u03ae\u03bd\u03b1","addr:housenumber":"114","addr:street":"\u0391\u03c7\u03b1\u03c1\u03bd\u03ce\u03bd","brand":"Bridgestone","brand:wikidata":"Q179433","brand:wikipedia":"en:Bridgestone","name":"Bridgestone","shop":"tyres"}},{"type":"node","id":7687922723,"lat":37.9958188,"lon":23.7275359,"tags":{"addr:city":"\u0391\u03b8\u03ae\u03bd\u03b1","addr:housenumber":"26","addr:street":"\u039c\u03cd\u03c1\u03c9\u03bd"}}]}