{"version":0.6,"generator":"Overpass API 0.7.61.5 4133829e","osm3s":{"timestamp_osm_base":"2023-08-16T11:14:51Z","copyright":"The data included in this document is from www.openstreetmap.org. The data is made available under ODbL."},"elements":[{"type":"node","id":1434352148,"lat":37.9957553,"lon":23.7246301,"tags":{"addr:street":"\u0391\u03bb\u03ba\u03b1\u03bc\u03ad\u03bd\u03bf\u03c5\u03c2","amenity":"pharmacy","dispensing":"no","healthcare":"pharmacy"}},{"type":"node","id":1741476879,"lat":37.9955863,"lon":23.7252511,"tags":{"addr:city":"\u0391\u03b8\u03ae\u03bd\u03b1","addr:country":"GR","addr:housenumber":"16","addr:postcode":"10440","addr:street":"\u03a0\u03b1\u03c1\u03b1\u03c3\u03af\u03bf\u03c5"}},{"type":"node","id":1741476896,"lat":37.9956146,"lon":23.7246647,"tags":{"addr:city":"\u0391\u03b8\u03ae\u03bd\u03b1","addr:country":"GR","addr:housenumber":"24","addr:postcode":"10440","addr:street":"\u03a0\u03b1\u03c1\u03b1\u03c3\u03af\u03bf\u03c5"}},{"type":"node","id":2475332269,"lat":37.9956398,"lon":23.7244481,"tags":{"addr:city":"\u0391\u03b8\u03ae\u03bd\u03b1","addr:country":"GR","addr:housenumber":"71","addr:postcode":"10440","addr:street":"\u0391\u03bb\u03ba\u03b1\u03bc\u03ad\u03bd\u03bf\u03c5\u03c2"}},{"type":"node","id":2475332271,"lat":37.9957603,"lon":23.7244631,"tags":{"addr:city":"\u0391\u03b8\u03ae\u03bd\u03b1","addr:country":"GR","addr:housenumber":"73","addr:postcode":"10440","addr:street":"\u0391\u03bb\u03ba\u03b1\u03bc\u03ad\u03bd\u03bf\u03c5\u03c2"}},{"type":"node","id":2475332272,"lat":37.9956528,"lon":23.72461,"tags":{"addr:city":"\u0391\u03b8\u03ae\u03bd\u03b1","addr:country":"GR","addr:housenumber":"74","addr:postcode":"10440","addr:street":"\u0391\u03bb\u03ba\u03b1\u03bc\u03ad\u03bd\u03bf\u03c5\u03c2"}},{"type":"node","id":2475332273,"lat":37.9960416,"lon":23.7244929,"tags":{"addr:city":"\u0391\u03b8\u03ae\u03bd\u03b1","addr:country":"GR","addr:housenumber":"75","addr:postcode":"10440","addr:street":"\u0391\u03bb\u03ba\u03b1\u03bc\u03ad\u03bd\u03bf\u03c5\u03c2"}},{"type":"node","id":2475332274,"lat":37.9958418,"lon":23.72464,"tags":{"addr:city":"\u0391\u03b8\u03ae\u03bd\u03b1","addr:country":"GR","addr:housenumber":"76","addr:postcode":"10440","addr:street":"\u0391\u03bb\u03ba\u03b1\u03bc\u03ad\u03bd\u03bf\u03c5\u03c2"}},{"type":"node","id":2475332277,"lat":37.9960722,"lon":23.7246835,"tags":{"addr:city":"\u0391\u03b8\u03ae\u03bd\u03b1","addr:country":"GR","addr:housenumber":"78","addr:postcode":"10440","addr:street":"\u0391\u03bb\u03ba\u03b1\u03bc\u03ad\u03bd\u03bf\u03c5\u03c2"}},{"type":"node","id":2475332280,"lat":37.9961821,"lon":23.724706,"tags":{"addr:city":"\u0391\u03b8\u03ae\u03bd\u03b1","addr:country":"GR","addr:housenumber":"80","addr:postcode":"10440","addr:street":"\u0391\u03bb\u03ba\u03b1\u03bc\u03ad\u03bd\u03bf\u03c5\u03c2"}}]}