{"version":0.6,"generator":"Overpass API 0.7.61.5 4133829e","osm3s":{"timestamp_osm_base":"2023-08-16T11:06:35Z","copyright":"The data included in this document is from www.openstreetmap.org. The data is made available under ODbL."},"elements":[{"type":"node","id":1609046804,"lat":38.0001878,"lon":23.731815,"tags":{"addr:city":"\u0391\u03b8\u03ae\u03bd\u03b1","addr:country":"GR","addr:housenumber":"69","addr:postcode":"11251","addr:street":"\u0391\u03b3\u03af\u03bf\u03c5 \u039c\u03b5\u03bb\u03b5\u03c4\u03af\u03bf\u03c5"}},{"type":"node","id":1609046814,"lat":38.0002134,"lon":23.7317271,"tags":{"addr:city":"\u0391\u03b8\u03ae\u03bd\u03b1","addr:country":"GR","addr:housenumber":"71","addr:postcode":"11251","addr:street":"\u0391\u03b3\u03af\u03bf\u03c5 \u039c\u03b5\u03bb\u03b5\u03c4\u03af\u03bf\u03c5"}},{"type":"node","id":1609046823,"lat":38.0002309,"lon":23.7315873,"tags":{"addr:city":"\u0391\u03b8\u03ae\u03bd\u03b1","addr:country":"GR","addr:housenumber":"73","addr:postcode":"11251","addr:street":"\u0391\u03b3\u03af\u03bf\u03c5 \u039c\u03b5\u03bb\u03b5\u03c4\u03af\u03bf\u03c5"}},{"type":"node","id":1609046831,"lat":38.000247,"lon":23.7314586,"tags":{"addr:city":"\u0391\u03b8\u03ae\u03bd\u03b1","addr:country":"GR","addr:housenumber":"75","addr:postcode":"11251","addr:street":"\u0391\u03b3\u03af\u03bf\u03c5 \u039c\u03b5\u03bb\u03b5\u03c4\u03af\u03bf\u03c5"}},{"type":"node","id":1628331446,"lat":38.0000873,"lon":23.731834,"tags":{"addr:city":"\u0391\u03b8\u03ae\u03bd\u03b1","addr:country":"GR","addr:housenumber":"173","addr:postcode":"11251","addr:street":"3\u03b7\u03c2 \u03a3\u03b5\u03c0\u03c4\u03b5\u03bc\u03b2\u03c1\u03af\u03bf\u03c5"}},{"type":"node","id":1628331449,"lat":38.0000516,"lon":23.7321397,"tags":{"addr:city":"\u0391\u03b8\u03ae\u03bd\u03b1","addr:country":"GR","addr:housenumber":"178","addr:postcode":"11251","addr:street":"3\u03b7\u03c2 \u03a3\u03b5\u03c0\u03c4\u03b5\u03bc\u03b2\u03c1\u03af\u03bf\u03c5"}},{"type":"node","id":6279912234,"lat":38.0002049,"lon":23.7320154,"tags":{"highway":"traffic_signals","traffic_signals":"signal"}}]}