{"version":0.6,"generator":"Overpass API 0.7.61.5 4133829e","osm3s":{"timestamp_osm_base":"2023-08-16T11:22:04Z","copyright":"The data included in this document is from www.openstreetmap.org. The data is made available under ODbL."},"elements":[{"type":"node","id":4805189221,"lat":37.9988703,"lon":23.7353812,"tags":{"amenity":"clinic","healthcare":"clinic","name:en":"Doctors hospital"}},{"type":"node","id":6219676687,"lat":37.998817,"lon":23.7349175,"tags":{"addr:housenumber":"31","addr:street":"\u039a\u03b5\u03c6\u03b1\u03bb\u03bb\u03b7\u03bd\u03af\u03b1\u03c2"}},{"type":"node","id":7197226306,"lat":37.9987683,"lon":23.735248,"tags":{"addr:city":"\u0391\u03b8\u03ae\u03bd\u03b1","addr:housenumber":"27","addr:street":"\u039a\u03b5\u03c6\u03b1\u03bb\u03bb\u03b7\u03bd\u03af\u03b1\u03c2"}},{"type":"node","id":7197226307,"lat":37.9987926,"lon":23.7350828,"tags":{"addr:city":"\u0391\u03b8\u03ae\u03bd\u03b1","addr:housenumber":"29","addr:street":"\u039a\u03b5\u03c6\u03b1\u03bb\u03bb\u03b7\u03bd\u03af\u03b1\u03c2"}},{"type":"node","id":9457107126,"lat":37.9987378,"lon":23.7355254,"tags":{"name":"Armam","shop":"convenience"}}]}