{"version":0.6,"generator":"Overpass API 0.7.61.5 4133829e","osm3s":{"timestamp_osm_base":"2023-08-16T11:14:51Z","copyright":"The data included in this document is from www.openstreetmap.org. The data is made available under ODbL."},"elements":[{"type":"node","id":1649205892,"lat":37.9971734,"lon":23.7251506,"tags":{"addr:city":"\u0391\u03b8\u03ae\u03bd\u03b1","addr:country":"GR","addr:housenumber":"29","addr:postcode":"10446","addr:street":"\u03a3\u03c9\u03b6\u03bf\u03c0\u03cc\u03bb\u03b5\u03c9\u03c2"}},{"type":"node","id":2475332288,"lat":37.9969477,"lon":23.7246265,"tags":{"addr:city":"\u0391\u03b8\u03ae\u03bd\u03b1","addr:country":"GR","addr:housenumber":"87","addr:postcode":"10446","addr:street":"\u0391\u03bb\u03ba\u03b1\u03bc\u03ad\u03bd\u03bf\u03c5\u03c2"}},{"type":"node","id":2475332291,"lat":37.9971283,"lon":23.724634,"tags":{"addr:city":"\u0391\u03b8\u03ae\u03bd\u03b1","addr:country":"GR","addr:housenumber":"89","addr:postcode":"10446","addr:street":"\u0391\u03bb\u03ba\u03b1\u03bc\u03ad\u03bd\u03bf\u03c5\u03c2"}},{"type":"node","id":2475332295,"lat":37.9972141,"lon":23.7246485,"tags":{"addr:city":"\u0391\u03b8\u03ae\u03bd\u03b1","addr:country":"GR","addr:housenumber":"91","addr:postcode":"10446","addr:street":"\u0391\u03bb\u03ba\u03b1\u03bc\u03ad\u03bd\u03bf\u03c5\u03c2"}},{"type":"node","id":2475332296,"lat":37.9970198,"lon":23.7248125,"tags":{"addr:city":"\u0391\u03b8\u03ae\u03bd\u03b1","addr:country":"GR","addr:housenumber":"92","addr:postcode":"10446","addr:street":"\u0391\u03bb\u03ba\u03b1\u03bc\u03ad\u03bd\u03bf\u03c5\u03c2"}},{"type":"node","id":2475332297,"lat":37.9973152,"lon":23.7246573,"tags":{"addr:city":"\u0391\u03b8\u03ae\u03bd\u03b1","addr:country":"GR","addr:housenumber":"93","addr:postcode":"10446","addr:street":"\u0391\u03bb\u03ba\u03b1\u03bc\u03ad\u03bd\u03bf\u03c5\u03c2"}},{"type":"node","id":2475332298,"lat":37.9971439,"lon":23.7248275,"tags":{"addr:city":"\u0391\u03b8\u03ae\u03bd\u03b1","addr:country":"GR","addr:housenumber":"94","addr:postcode":"10446","addr:street":"\u0391\u03bb\u03ba\u03b1\u03bc\u03ad\u03bd\u03bf\u03c5\u03c2"}},{"type":"node","id":2475332300,"lat":37.9974452,"lon":23.7246685,"tags":{"addr:city":"\u0391\u03b8\u03ae\u03bd\u03b1","addr:country":"GR","addr:housenumber":"95","addr:postcode":"10446","addr:street":"\u0391\u03bb\u03ba\u03b1\u03bc\u03ad\u03bd\u03bf\u03c5\u03c2"}},{"type":"node","id":2475332301,"lat":37.9973081,"lon":23.7248319,"tags":{"addr:city":"\u0391\u03b8\u03ae\u03bd\u03b1","addr:country":"GR","addr:housenumber":"96","addr:postcode":"10446","addr:street":"\u0391\u03bb\u03ba\u03b1\u03bc\u03ad\u03bd\u03bf\u03c5\u03c2"}},{"type":"node","id":2475332303,"lat":37.9974794,"lon":23.7248409,"tags":{"addr:city":"\u0391\u03b8\u03ae\u03bd\u03b1","addr:country":"GR","addr:housenumber":"98","addr:postcode":"10446","addr:street":"\u0391\u03bb\u03ba\u03b1\u03bc\u03ad\u03bd\u03bf\u03c5\u03c2"}}]}