{"version":0.6,"generator":"Overpass API 0.7.61.5 4133829e","osm3s":{"timestamp_osm_base":"2023-08-16T11:07:35Z","copyright":"The data included in this document is from www.openstreetmap.org. The data is made available under ODbL."},"elements":[{"type":"node","id":1749680567,"lat":37.996736,"lon":23.7321354,"tags":{"addr:city":"\u0391\u03b8\u03ae\u03bd\u03b1","addr:country":"GR","addr:housenumber":"27","addr:postcode":"11251","addr:street":"\u03a0\u03b9\u03c0\u03af\u03bd\u03bf\u03c5"}},{"type":"node","id":1749680570,"lat":37.9968487,"lon":23.7314011,"tags":{"addr:city":"\u0391\u03b8\u03ae\u03bd\u03b1","addr:country":"GR","addr:housenumber":"39","addr:postcode":"11251","addr:street":"\u03a0\u03b9\u03c0\u03af\u03bd\u03bf\u03c5"}},{"type":"node","id":3946455766,"lat":37.9964909,"lon":23.7320123,"tags":{"addr:city":"\u0391\u03b8\u03ae\u03bd\u03b1","addr:street":"\u03a4\u03c1\u03bf\u03af\u03b1\u03c2 34","amenity":"cinema","name":"\u039a\u03b9\u03bd\u03b7\u03bc\u03b1\u03c4\u03bf\u03b3\u03c1\u03ac\u03c6\u03bf\u03c2 \u0399\u039b\u0399\u039f\u039d","phone":"2108810602"}},{"type":"node","id":5982832387,"lat":37.9965483,"lon":23.7313319,"tags":{"addr:city":"\u0391\u03b8\u03ae\u03bd\u03b1","addr:housenumber":"44","addr:street":"\u03a4\u03c1\u03bf\u03af\u03b1\u03c2"}},{"type":"node","id":6219676686,"lat":37.9968126,"lon":23.7315229,"tags":{"addr:housenumber":"37","addr:street":"\u03a0\u03b9\u03c0\u03af\u03bd\u03bf\u03c5"}},{"type":"node","id":6328499702,"lat":37.9967948,"lon":23.7313225,"tags":{"addr:city":"\u0391\u03b8\u03ae\u03bd\u03b1","addr:housenumber":"140","addr:street":"3\u03b7\u03c2 \u03a3\u03b5\u03c0\u03c4\u03b5\u03bc\u03b2\u03c1\u03af\u03bf\u03c5","name":"\u039c\u03b1\u03af\u03c1\u03b7","shop":"hairdresser"}},{"type":"node","id":7864562020,"lat":37.996359,"lon":23.731874,"tags":{"addr:city":"\u0391\u03b8\u03ae\u03bd\u03b1","addr:housenumber":"45","addr:street":"\u03a4\u03c1\u03bf\u03af\u03b1\u03c2"}},{"type":"node","id":7864562021,"lat":37.9964457,"lon":23.7312974,"tags":{"addr:city":"\u0391\u03b8\u03ae\u03bd\u03b1","addr:housenumber":"55","addr:street":"\u03a4\u03c1\u03bf\u03af\u03b1\u03c2"}},{"type":"node","id":9775541595,"lat":37.9967444,"lon":23.7313158,"tags":{"addr:city":"\u0391\u03b8\u03ae\u03bd\u03b1","addr:housenumber":"140","addr:street":"3\u03b7\u03c2 \u03a3\u03b5\u03c0\u03c4\u03b5\u03bc\u03b2\u03c1\u03af\u03bf\u03c5","name":"\u039b\u03bf\u03b3\u03b9\u03c3\u03c4\u03b9\u03ba\u03ac-\u03c6\u03bf\u03c1\u03bf\u03c4\u03b5\u03c7\u03bd\u03b9\u03ba\u03ac","office":"accountant"}},{"type":"node","id":10967808519,"lat":37.9968568,"lon":23.7313182,"tags":{"addr:city":"\u0391\u03b8\u03ae\u03bd\u03b1","addr:housenumber":"140","addr:street":"3\u03b7\u03c2 \u03a3\u03b5\u03c0\u03c4\u03b5\u03bc\u03b2\u03c1\u03af\u03bf\u03c5","name":"\u039f... \u03b1\u03c1\u03c4\u03bf\u03c0\u03bf\u03b9\u03cc\u03c2","shop":"bakery"}},{"type":"node","id":10993162738,"lat":37.9963322,"lon":23.7320832,"tags":{"addr:city":"\u0391\u03b8\u03ae\u03bd\u03b1","addr:housenumber":"45","addr:street":"\u03a4\u03c1\u03bf\u03af\u03b1\u03c2","clothes":"women","name":"Q & B Moda","shop":"clothes"}}]}