{"version":0.6,"generator":"Overpass API 0.7.61.5 4133829e","osm3s":{"timestamp_osm_base":"2023-08-16T11:25:12Z","copyright":"The data included in this document is from www.openstreetmap.org. The data is made available under ODbL."},"elements":[{"type":"node","id":2106883959,"lat":37.9998832,"lon":23.7229408,"tags":{"barrier":"gate"}},{"type":"node","id":2106883983,"lat":37.9999554,"lon":23.7229473,"tags":{"barrier":"gate"}},{"type":"node","id":2106884026,"lat":38.0002993,"lon":23.7228386,"tags":{"railway":"buffer_stop"}},{"type":"node","id":2430551080,"lat":37.9997242,"lon":23.72298,"tags":{"amenity":"atm","brand":"\u03a4\u03c1\u03ac\u03c0\u03b5\u03b6\u03b1 \u03a0\u03b5\u03b9\u03c1\u03b1\u03b9\u03ce\u03c2","brand:el":"\u03a4\u03c1\u03ac\u03c0\u03b5\u03b6\u03b1 \u03a0\u03b5\u03b9\u03c1\u03b1\u03b9\u03ce\u03c2","brand:en":"Piraeus Bank","brand:wikidata":"Q3312","brand:wikipedia":"en:Piraeus Bank","name":"\u03a4\u03c1\u03ac\u03c0\u03b5\u03b6\u03b1 \u03a0\u03b5\u03b9\u03c1\u03b1\u03b9\u03ce\u03c2","name:el":"\u03a4\u03c1\u03ac\u03c0\u03b5\u03b6\u03b1 \u03a0\u03b5\u03b9\u03c1\u03b1\u03b9\u03ce\u03c2","name:en":"Piraeus Bank","operator":"\u03a4\u03c1\u03ac\u03c0\u03b5\u03b6\u03b1 \u03a0\u03b5\u03b9\u03c1\u03b1\u03b9\u03ce\u03c2","operator:wikidata":"Q3312","operator:wikipedia":"en:Piraeus Bank","short_name":"\u03a0\u03b5\u03b9\u03c1\u03b1\u03b9\u03ce\u03c2","short_name:el":"\u03a0\u03b5\u03b9\u03c1\u03b1\u03b9\u03ce\u03c2","short_name:en":"Piraeus"}},{"type":"node","id":5168773057,"lat":38.0001236,"lon":23.7235583,"tags":{"addr:city":"\u0391\u03b8\u03ae\u03bd\u03b1","addr:housenumber":"68","addr:street":"\u0391\u03b4\u03bc\u03ae\u03c4\u03bf\u03c5","shop":"convenience"}},{"type":"node","id":5168774711,"lat":38.0000497,"lon":23.7235503,"tags":{"addr:city":"\u0391\u03b8\u03ae\u03bd\u03b1","addr:street":"\u0391\u03b4\u03bc\u03ae\u03c4\u03bf\u03c5","amenity":"restaurant","name":"\u03a3\u03c0\u03b9\u03c4\u03b9\u03ba\u03ae \u03ba\u03bf\u03c5\u03b6\u03af\u03bd\u03b1","takeaway":"only"}}]}