{"version":0.6,"generator":"Overpass API 0.7.61.5 4133829e","osm3s":{"timestamp_osm_base":"2023-08-16T11:06:35Z","copyright":"The data included in this document is from www.openstreetmap.org. The data is made available under ODbL."},"elements":[{"type":"node","id":1766175740,"lat":37.9977186,"lon":23.7277606,"tags":{"addr:city":"\u0391\u03b8\u03ae\u03bd\u03b1","addr:country":"GR","addr:housenumber":"140","addr:postcode":"11251","addr:street":"\u0391\u03c7\u03b1\u03c1\u03bd\u03ce\u03bd"}},{"type":"node","id":1766175742,"lat":37.9979081,"lon":23.7277009,"tags":{"addr:city":"\u0391\u03b8\u03ae\u03bd\u03b1","addr:country":"GR","addr:housenumber":"142","addr:postcode":"11251","addr:street":"\u0391\u03c7\u03b1\u03c1\u03bd\u03ce\u03bd"}},{"type":"node","id":1766175744,"lat":37.9980104,"lon":23.7277033,"tags":{"addr:city":"\u0391\u03b8\u03ae\u03bd\u03b1","addr:country":"GR","addr:housenumber":"144","addr:postcode":"11251","addr:street":"\u0391\u03c7\u03b1\u03c1\u03bd\u03ce\u03bd"}},{"type":"node","id":1766175746,"lat":37.9981099,"lon":23.7277021,"tags":{"addr:city":"\u0391\u03b8\u03ae\u03bd\u03b1","addr:country":"GR","addr:housenumber":"146","addr:postcode":"11251","addr:street":"\u0391\u03c7\u03b1\u03c1\u03bd\u03ce\u03bd"}},{"type":"node","id":1766175748,"lat":37.9981647,"lon":23.7276973,"tags":{"addr:city":"\u0391\u03b8\u03ae\u03bd\u03b1","addr:country":"GR","addr:housenumber":"148","addr:postcode":"11251","addr:street":"\u0391\u03c7\u03b1\u03c1\u03bd\u03ce\u03bd"}},{"type":"node","id":3161134171,"lat":37.9977187,"lon":23.7276769,"tags":{"addr:city":"\u0391\u03b8\u03ae\u03bd\u03b1","addr:housenumber":"140","addr:street":"\u0391\u03c7\u03b1\u03c1\u03bd\u03ce\u03bd","amenity":"fast_food","name":"\u03a1\u03ce\u03c3\u03b9\u03ba\u03bf \u03a0\u03b9\u03c1\u03bf\u03c3\u03ba\u03af"}},{"type":"node","id":4782429467,"lat":37.9979292,"lon":23.7273789,"tags":{"addr:city":"\u0391\u03b8\u03ae\u03bd\u03b1","addr:housenumber":"125","addr:street":"\u0391\u03c7\u03b1\u03c1\u03bd\u03ce\u03bd","shop":"convenience"}},{"type":"node","id":10294212664,"lat":37.998115,"lon":23.727615,"tags":{"amenity":"recycling","colour":"red","material":"metal","recycling:clothes":"yes","recycling:shoes":"yes","recycling_type":"container"}},{"type":"node","id":10294224011,"lat":37.9977428,"lon":23.7274673,"tags":{"addr:city":"\u0391\u03b8\u03ae\u03bd\u03b1","addr:housenumber":"121","addr:street":"\u0391\u03c7\u03b1\u03c1\u03bd\u03ce\u03bd","shop":"kiosk"}},{"type":"node","id":10705389231,"lat":37.9981324,"lon":23.7277535,"tags":{"addr:city":"\u0391\u03b8\u03ae\u03bd\u03b1","addr:housenumber":"2","addr:street":"\u039c\u03b1\u03c5\u03c1\u03bf\u03b3\u03ad\u03bd\u03bf\u03c5\u03c2"}}]}