{"version":0.6,"generator":"Overpass API 0.7.61.5 4133829e","osm3s":{"timestamp_osm_base":"2023-08-16T11:13:45Z","copyright":"The data included in this document is from www.openstreetmap.org. The data is made available under ODbL."},"elements":[{"type":"node","id":4678765911,"lat":37.9955986,"lon":23.7331317,"tags":{"amenity":"fast_food","brand":"Domino's","brand:wikidata":"Q839466","brand:wikipedia":"en:Domino's Pizza","cuisine":"pizza","delivery":"yes","name":"Domino's","opening_hours":"Mo 12:30-24:00; Tu-Su 00:00-00:30,12:30-24:00","phone":"+302106962800","takeaway":"yes","website":"dominos.gr"}},{"type":"node","id":4678765912,"lat":37.9955781,"lon":23.7332708,"tags":{"name":"Siamos Tours","shop":"travel_agency","website":"siamostours.gr"}},{"type":"node","id":4751081922,"lat":37.9956109,"lon":23.7330578,"tags":{"shop":"copyshop"}},{"type":"node","id":4789421895,"lat":37.9955688,"lon":23.7333339,"tags":{"addr:city":"\u0391\u03b8\u03ae\u03bd\u03b1","addr:housenumber":"8","addr:postcode":"11257","addr:street":"\u039a\u03bf\u03b4\u03c1\u03b9\u03b3\u03ba\u03c4\u03ce\u03bd\u03bf\u03c2","name":"\u03a0\u03b1\u03bb\u03b1\u03b9\u03bf\u03c0\u03c9\u03bb\u03b5\u03af\u03bf","shop":"antiques"}},{"type":"node","id":6111056848,"lat":37.9961438,"lon":23.7336069,"tags":{"highway":"stop"}},{"type":"node","id":9506296872,"lat":37.9955893,"lon":23.7331987,"tags":{"amenity":"driving_school","name":"\u03a3\u03c9\u03c4\u03b7\u03c1\u03cc\u03c0\u03bf\u03c5\u03bb\u03bf\u03c2"}},{"type":"node","id":9912478061,"lat":37.9959659,"lon":23.7333111,"tags":{"natural":"tree"}},{"type":"node","id":9912478062,"lat":37.9958131,"lon":23.7333035,"tags":{"natural":"tree"}},{"type":"node","id":9950744616,"lat":37.9959417,"lon":23.733117,"tags":{"natural":"tree"}},{"type":"node","id":9950783117,"lat":37.9959228,"lon":23.73323,"tags":{"natural":"tree"}},{"type":"node","id":10118331186,"lat":37.9956458,"lon":23.7334963,"tags":{"addr:city":"\u0391\u03b8\u03ae\u03bd\u03b1","addr:housenumber":"1","addr:postcode":"11257","addr:street":"\u0399\u03c9\u03ac\u03bd\u03bd\u03bf\u03c5 \u0394\u03c1\u03bf\u03c3\u03bf\u03c0\u03bf\u03cd\u03bb\u03bf\u03c5"}},{"type":"node","id":10118355594,"lat":37.9956047,"lon":23.733619,"tags":{"addr:city":"\u0391\u03b8\u03ae\u03bd\u03b1","addr:housenumber":"2","addr:postcode":"11257","addr:street":"\u0399\u03c9\u03ac\u03bd\u03bd\u03bf\u03c5 \u0394\u03c1\u03bf\u03c3\u03bf\u03c0\u03bf\u03cd\u03bb\u03bf\u03c5"}},{"type":"node","id":10118464092,"lat":37.9961278,"lon":23.7337104,"tags":{"highway":"crossing"}},{"type":"node","id":10118464100,"lat":37.9961387,"lon":23.7336396,"tags":{"highway":"crossing"}}]}