{"version":0.6,"generator":"Overpass API 0.7.61.5 4133829e","osm3s":{"timestamp_osm_base":"2023-08-16T11:08:40Z","copyright":"The data included in this document is from www.openstreetmap.org. The data is made available under ODbL."},"elements":[{"type":"node","id":1749680609,"lat":37.9974661,"lon":23.7264277,"tags":{"addr:city":"\u0391\u03b8\u03ae\u03bd\u03b1","addr:country":"GR","addr:housenumber":"83","addr:postcode":"10446","addr:street":"\u03a0\u03b9\u03c0\u03af\u03bd\u03bf\u03c5"}},{"type":"node","id":1749680625,"lat":37.9975759,"lon":23.7267165,"tags":{"addr:city":"\u0391\u03b8\u03ae\u03bd\u03b1","addr:country":"GR","addr:housenumber":"94","addr:postcode":"10446","addr:street":"\u03a0\u03b9\u03c0\u03af\u03bd\u03bf\u03c5"}},{"type":"node","id":4744471855,"lat":37.996993,"lon":23.7263844,"tags":{"addr:city":"\u0391\u03b8\u03ae\u03bd\u03b1","addr:housenumber":"93","addr:street":"\u0391\u03bb\u03ba\u03b9\u03b2\u03b9\u03ac\u03b4\u03bf\u03c5","shop":"convenience"}},{"type":"node","id":4784757455,"lat":37.9972584,"lon":23.7267256,"tags":{"access":"yes","addr:city":"\u0391\u03b8\u03ae\u03bd\u03b1","addr:street":"\u03a0\u03b9\u03c0\u03af\u03bd\u03bf\u03c5","leisure":"playground"}},{"type":"node","id":7326069593,"lat":37.9975355,"lon":23.7265886,"tags":{"highway":"stop"}},{"type":"node","id":7617521402,"lat":37.997171,"lon":23.7265995,"tags":{"amenity":"recycling","colour":"red","material":"metal","recycling:clothes":"yes","recycling:shoes":"yes","recycling_type":"container"}},{"type":"node","id":8756312705,"lat":37.9970722,"lon":23.7263927,"tags":{"addr:city":"\u0391\u03b8\u03ae\u03bd\u03b1","addr:housenumber":"93","addr:street":"\u0391\u03bb\u03ba\u03b9\u03b2\u03b9\u03ac\u03b4\u03bf\u03c5","name":"Beauty House","shop":"hairdresser"}}]}