{"version":0.6,"generator":"Overpass API 0.7.61.5 4133829e","osm3s":{"timestamp_osm_base":"2023-08-16T11:07:35Z","copyright":"The data included in this document is from www.openstreetmap.org. The data is made available under ODbL."},"elements":[{"type":"node","id":961043994,"lat":37.9963255,"lon":23.7274968,"tags":{"highway":"traffic_signals","traffic_signals":"signal"}},{"type":"node","id":961044066,"lat":37.9964334,"lon":23.7274086,"tags":{"highway":"traffic_signals","traffic_signals":"signal","traffic_signals:direction":"backward"}},{"type":"node","id":1758398564,"lat":37.9964148,"lon":23.7276476,"tags":{"addr:city":"\u0391\u03b8\u03ae\u03bd\u03b1","addr:country":"GR","addr:housenumber":"62","addr:postcode":"11251","addr:street":"\u039a\u03bf\u03b4\u03c1\u03b9\u03b3\u03ba\u03c4\u03ce\u03bd\u03bf\u03c2"}},{"type":"node","id":1766175728,"lat":37.9964548,"lon":23.7275493,"tags":{"addr:city":"\u0391\u03b8\u03ae\u03bd\u03b1","addr:country":"GR","addr:housenumber":"122","addr:postcode":"11251","addr:street":"\u0391\u03c7\u03b1\u03c1\u03bd\u03ce\u03bd"}},{"type":"node","id":1766175730,"lat":37.9966424,"lon":23.7276672,"tags":{"addr:city":"\u0391\u03b8\u03ae\u03bd\u03b1","addr:country":"GR","addr:housenumber":"126","addr:postcode":"11251","addr:street":"\u0391\u03c7\u03b1\u03c1\u03bd\u03ce\u03bd"}},{"type":"node","id":1766175731,"lat":37.9969015,"lon":23.7276937,"tags":{"addr:city":"\u0391\u03b8\u03ae\u03bd\u03b1","addr:country":"GR","addr:housenumber":"128","addr:postcode":"11251","addr:street":"\u0391\u03c7\u03b1\u03c1\u03bd\u03ce\u03bd"}},{"type":"node","id":1997456426,"lat":37.9966066,"lon":23.7274356,"tags":{"bus":"yes","public_transport":"stop_position","trolleybus":"yes"}},{"type":"node","id":2203904996,"lat":37.996625,"lon":23.7275679,"tags":{"amenity":"pharmacy","healthcare":"pharmacy"}},{"type":"node","id":2203904997,"lat":37.9964168,"lon":23.7275666,"tags":{"amenity":"bank","brand":"Eurobank","brand:wikidata":"Q951850","brand:wikipedia":"el:Eurobank","name":"Eurobank"}},{"type":"node","id":3148875774,"lat":37.9965965,"lon":23.7274915,"tags":{"bus":"yes","highway":"bus_stop","name":"\u0391\u0393\u0399\u039f\u03a3 \u03a0\u0391\u039d\u03a4\u0395\u039b\u0395\u0397\u039c\u03a9\u039d","network":"\u039f\u0391\u03a3\u0391","network:el":"\u039f\u0391\u03a3\u0391","network:en":"OASA","network:wikidata":"Q1814382","operator":"\u039f\u0391\u03a3\u0391","public_transport":"platform","ref":"060895","shelter":"yes","trolleybus":"yes"}},{"type":"node","id":4376589618,"lat":37.9962789,"lon":23.7272463,"tags":{"addr:city":"\u0391\u03b8\u03ae\u03bd\u03b1","shop":"kiosk"}},{"type":"node","id":4376589793,"lat":37.99657,"lon":23.7272772,"tags":{"shop":"kiosk"}},{"type":"node","id":4784759049,"lat":37.9965789,"lon":23.7275691,"tags":{"addr:city":"\u0391\u03b8\u03ae\u03bd\u03b1","addr:housenumber":"124","addr:street":"\u0391\u03c7\u03b1\u03c1\u03bd\u03ce\u03bd","name":"\u039c\u03ac\u03bb\u03b1\u03bc\u03b1\u03c2","shop":"confectionery"}},{"type":"node","id":4784762641,"lat":37.9962417,"lon":23.7274913,"tags":{"addr:city":"\u0391\u03b8\u03ae\u03bd\u03b1","addr:housenumber":"120","addr:street":"\u0391\u03c7\u03b1\u03c1\u03bd\u03ce\u03bd","amenity":"fast_food","name":"Smile"}},{"type":"node","id":4824480954,"lat":37.9968685,"lon":23.7276012,"tags":{"addr:city":"\u0391\u03b8\u03ae\u03bd\u03b1","addr:housenumber":"128","addr:street":"\u0391\u03c7\u03b1\u03c1\u03bd\u03ce\u03bd","shop":"hairdresser"}},{"type":"node","id":4881199786,"lat":37.9968127,"lon":23.7277025,"tags":{"addr:city":"\u0391\u03b8\u03ae\u03bd\u03b1","addr:housenumber":"38","addr:street":"\u039c\u03b1\u03b3\u03bd\u03b7\u03c3\u03af\u03b1\u03c2"}},{"type":"node","id":5213139365,"lat":37.9968189,"lon":23.7276207,"tags":{"addr:city":"\u0391\u03b8\u03ae\u03bd\u03b1","addr:housenumber":"128","addr:street":"\u0391\u03c7\u03b1\u03c1\u03bd\u03ce\u03bd","amenity":"fast_food"}},{"type":"node","id":6360448059,"lat":37.9965798,"lon":23.7271587,"tags":{"amenity":"fountain"}},{"type":"node","id":6604878077,"lat":37.9966824,"lon":23.7275632,"tags":{"addr:city":"\u0391\u03b8\u03ae\u03bd\u03b1","addr:housenumber":"126","addr:street":"\u0391\u03c7\u03b1\u03c1\u03bd\u03ce\u03bd","name":"Union Mobile","shop":"mobile_phone"}}]}