{"version":0.6,"generator":"Overpass API 0.7.61.5 4133829e","osm3s":{"timestamp_osm_base":"2023-08-16T11:23:06Z","copyright":"The data included in this document is from www.openstreetmap.org. The data is made available under ODbL."},"elements":[{"type":"node","id":1649205988,"lat":37.993688,"lon":23.7290016,"tags":{"addr:city":"\u0391\u03b8\u03ae\u03bd\u03b1","addr:country":"GR","addr:housenumber":"87","addr:postcode":"10434","addr:street":"\u0391\u03c1\u03b9\u03c3\u03c4\u03bf\u03c4\u03ad\u03bb\u03bf\u03c5\u03c2"}},{"type":"node","id":1649206019,"lat":37.9940715,"lon":23.7293496,"tags":{"addr:city":"\u0391\u03b8\u03ae\u03bd\u03b1","addr:country":"GR","addr:housenumber":"96","addr:postcode":"10434","addr:street":"\u0391\u03c1\u03b9\u03c3\u03c4\u03bf\u03c4\u03ad\u03bb\u03bf\u03c5\u03c2"}},{"type":"node","id":2511160031,"lat":37.9936419,"lon":23.7292535,"tags":{"addr:city":"\u0391\u03b8\u03ae\u03bd\u03b1","addr:country":"GR","addr:housenumber":"90","addr:postcode":"10434","addr:street":"\u0391\u03c1\u03b9\u03c3\u03c4\u03bf\u03c4\u03ad\u03bb\u03bf\u03c5\u03c2"}},{"type":"node","id":4641675520,"lat":37.9937934,"lon":23.7290419,"tags":{"addr:city":"\u0391\u03b8\u03ae\u03bd\u03b1","addr:housenumber":"89","addr:street":"\u0391\u03c1\u03b9\u03c3\u03c4\u03bf\u03c4\u03ad\u03bb\u03bf\u03c5\u03c2","name":"Bazaar","opening_hours":"Mo-Fr 08:00-21:00; Sa 08:00-20:00; Su closed","opening_hours:covid19":"Mo-Fr 08:00-20:30; Sa 08:00-20:00; Su closed","shop":"supermarket"}},{"type":"node","id":5181308074,"lat":37.994186,"lon":23.7293659,"tags":{"addr:city":"\u0391\u03b8\u03ae\u03bd\u03b1","addr:street":"\u0391\u03c1\u03b9\u03c3\u03c4\u03bf\u03c4\u03ad\u03bb\u03bf\u03c5\u03c2","brand":"\u039f\u03a0\u0391\u03a0","brand:wikidata":"Q2007823","brand:wikipedia":"el:\u039f\u03a0\u0391\u03a0","name":"\u039f\u03a0\u0391\u03a0","shop":"bookmaker"}},{"type":"node","id":5273161318,"lat":37.9935635,"lon":23.7295112,"tags":{"addr:city":"\u0391\u03b8\u03ae\u03bd\u03b1","addr:housenumber":"10-12","addr:street":"\u03a0\u03bb\u03b1\u03c4\u03b5\u03af\u03b1 \u039a\u03c5\u03c1\u03b9\u03b1\u03ba\u03bf\u03cd","amenity":"cafe","name":"Diva"}},{"type":"node","id":6202095592,"lat":37.9937982,"lon":23.7292565,"tags":{"opening_hours":"Mo-Fr 08:00-21:00; Sa 08:00-20:00; Su closed","opening_hours:covid19":"Mo-Fr 08:00-20:30; Sa 08:00-20:00; Su closed","shop":"supermarket"}},{"type":"node","id":7684407285,"lat":37.9935611,"lon":23.7292615,"tags":{"addr:city":"\u0391\u03b8\u03ae\u03bd\u03b1","addr:street":"\u03a0\u03bb\u03b1\u03c4\u03b5\u03af\u03b1 \u0392\u03b9\u03ba\u03c4\u03c9\u03c1\u03af\u03b1\u03c2","amenity":"restaurant","cuisine":"afghan","name":"Afghan Watan","name:en":"Afghan Watan Restaurant"}},{"type":"node","id":9670458385,"lat":37.994081,"lon":23.7295566,"tags":{"addr:city":"\u0391\u03b8\u03ae\u03bd\u03b1","addr:housenumber":"3","addr:postcode":"10434","addr:street":"\u03a6\u03b9\u03bb\u03b9\u03c0\u03c0\u03af\u03b4\u03bf\u03c5"}},{"type":"node","id":9670886989,"lat":37.993568,"lon":23.7293797,"tags":{"addr:city":"\u0391\u03b8\u03ae\u03bd\u03b1","addr:street":"\u03a0\u03bb\u03b1\u03c4\u03b5\u03af\u03b1 \u039a\u03c5\u03c1\u03b9\u03b1\u03ba\u03bf\u03cd","name":"Afghan mobile shop","shop":"mobile_phone"}}]}