{"version":0.6,"generator":"Overpass API 0.7.61.5 4133829e","osm3s":{"timestamp_osm_base":"2023-08-16T11:30:26Z","copyright":"The data included in this document is from www.openstreetmap.org. The data is made available under ODbL."},"elements":[{"type":"node","id":1659512421,"lat":37.9945457,"lon":23.7225271,"tags":{"addr:city":"\u0391\u03b8\u03ae\u03bd\u03b1","addr:country":"GR","addr:housenumber":"101","addr:postcode":"10440","addr:street":"\u039b\u03b9\u03bf\u03c3\u03af\u03c9\u03bd"}},{"type":"node","id":1659513267,"lat":37.9942843,"lon":23.7225961,"tags":{"addr:city":"\u0391\u03b8\u03ae\u03bd\u03b1","addr:country":"GR","addr:housenumber":"99","addr:postcode":"10440","addr:street":"\u039b\u03b9\u03bf\u03c3\u03af\u03c9\u03bd"}},{"type":"node","id":7343075473,"lat":37.9942158,"lon":23.722262,"tags":{"direction":"forward","highway":"stop"}},{"type":"node","id":7343075474,"lat":37.9944154,"lon":23.7223076,"tags":{"direction":"forward","highway":"stop"}},{"type":"node","id":7343075475,"lat":37.9943739,"lon":23.7225431,"tags":{"direction":"forward","highway":"stop"}},{"type":"node","id":10975221998,"lat":37.9948145,"lon":23.7226802,"tags":{"addr:city":"\u0391\u03b8\u03ae\u03bd\u03b1","addr:housenumber":"108\u0391","addr:street":"\u039b\u03b9\u03bf\u03c3\u03af\u03c9\u03bd","shop":"convenience"}},{"type":"node","id":11076564703,"lat":37.9946993,"lon":23.7227186,"tags":{"addr:city":"\u0391\u03b8\u03ae\u03bd\u03b1","addr:housenumber":"106","addr:street":"\u039b\u03b9\u03bf\u03c3\u03af\u03c9\u03bd"}}]}