{"version":0.6,"generator":"Overpass API 0.7.61.5 4133829e","osm3s":{"timestamp_osm_base":"2023-08-16T11:07:35Z","copyright":"The data included in this document is from www.openstreetmap.org. The data is made available under ODbL."},"elements":[{"type":"node","id":1758398416,"lat":37.9962663,"lon":23.7288162,"tags":{"addr:city":"\u0391\u03b8\u03ae\u03bd\u03b1","addr:country":"GR","addr:housenumber":"101","addr:postcode":"11251","addr:street":"\u03a6\u03c5\u03bb\u03ae\u03c2"}},{"type":"node","id":1758398429,"lat":37.9964811,"lon":23.7288268,"tags":{"addr:city":"\u0391\u03b8\u03ae\u03bd\u03b1","addr:country":"GR","addr:housenumber":"105","addr:postcode":"11251","addr:street":"\u03a6\u03c5\u03bb\u03ae\u03c2"}},{"type":"node","id":1758398467,"lat":37.996471,"lon":23.7290287,"tags":{"addr:city":"\u0391\u03b8\u03ae\u03bd\u03b1","addr:country":"GR","addr:housenumber":"130","addr:postcode":"11251","addr:street":"\u03a6\u03c5\u03bb\u03ae\u03c2"}},{"type":"node","id":1758398542,"lat":37.9962391,"lon":23.7287509,"tags":{"addr:city":"\u0391\u03b8\u03ae\u03bd\u03b1","addr:country":"GR","addr:housenumber":"46","addr:postcode":"11251","addr:street":"\u039a\u03bf\u03b4\u03c1\u03b9\u03b3\u03ba\u03c4\u03ce\u03bd\u03bf\u03c2"}},{"type":"node","id":4881202332,"lat":37.9965823,"lon":23.7290838,"tags":{"addr:city":"\u0391\u03b8\u03ae\u03bd\u03b1","addr:housenumber":"22","addr:street":"\u039c\u03b1\u03b3\u03bd\u03b7\u03c3\u03af\u03b1\u03c2"}},{"type":"node","id":5713121344,"lat":37.9968982,"lon":23.7291543,"tags":{"addr:city":"\u0391\u03b8\u03ae\u03bd\u03b1","addr:housenumber":"12","addr:street":"\u039c\u03ad\u03c1\u03bc\u03b7\u03b3\u03ba\u03b1"}},{"type":"node","id":5713126838,"lat":37.9967122,"lon":23.7290953,"tags":{"addr:city":"\u0391\u03b8\u03ae\u03bd\u03b1","addr:housenumber":"9","addr:street":"\u039c\u03ad\u03c1\u03bc\u03b7\u03b3\u03ba\u03b1"}},{"type":"node","id":6215046794,"lat":37.9965461,"lon":23.7288495,"tags":{"highway":"stop"}}]}