{"version":0.6,"generator":"Overpass API 0.7.61.5 4133829e","osm3s":{"timestamp_osm_base":"2023-08-16T11:07:35Z","copyright":"The data included in this document is from www.openstreetmap.org. The data is made available under ODbL."},"elements":[{"type":"node","id":1628331396,"lat":37.9983811,"lon":23.7314127,"tags":{"addr:city":"\u0391\u03b8\u03ae\u03bd\u03b1","addr:country":"GR","addr:housenumber":"147","addr:postcode":"11251","addr:street":"3\u03b7\u03c2 \u03a3\u03b5\u03c0\u03c4\u03b5\u03bc\u03b2\u03c1\u03af\u03bf\u03c5"}},{"type":"node","id":1628331403,"lat":37.9983934,"lon":23.7317675,"tags":{"addr:city":"\u0391\u03b8\u03ae\u03bd\u03b1","addr:country":"GR","addr:housenumber":"156","addr:postcode":"11251","addr:street":"3\u03b7\u03c2 \u03a3\u03b5\u03c0\u03c4\u03b5\u03bc\u03b2\u03c1\u03af\u03bf\u03c5"}},{"type":"node","id":1628331417,"lat":37.9986766,"lon":23.7317705,"tags":{"addr:city":"\u0391\u03b8\u03ae\u03bd\u03b1","addr:country":"GR","addr:housenumber":"162","addr:postcode":"11251","addr:street":"3\u03b7\u03c2 \u03a3\u03b5\u03c0\u03c4\u03b5\u03bc\u03b2\u03c1\u03af\u03bf\u03c5"}},{"type":"node","id":1628331428,"lat":37.9988757,"lon":23.7318285,"tags":{"addr:city":"\u0391\u03b8\u03ae\u03bd\u03b1","addr:country":"GR","addr:housenumber":"164","addr:postcode":"11251","addr:street":"3\u03b7\u03c2 \u03a3\u03b5\u03c0\u03c4\u03b5\u03bc\u03b2\u03c1\u03af\u03bf\u03c5"}},{"type":"node","id":1758398541,"lat":37.998284,"lon":23.7317566,"tags":{"addr:city":"\u0391\u03b8\u03ae\u03bd\u03b1","addr:country":"GR","addr:housenumber":"46","addr:postcode":"11251","addr:street":"\u0399\u03b8\u03ac\u03ba\u03b7\u03c2"}},{"type":"node","id":1758398543,"lat":37.9983487,"lon":23.7313356,"tags":{"addr:city":"\u0391\u03b8\u03ae\u03bd\u03b1","addr:country":"GR","addr:housenumber":"48","addr:postcode":"11251","addr:street":"\u0399\u03b8\u03ac\u03ba\u03b7\u03c2"}},{"type":"node","id":4465552300,"lat":37.9988098,"lon":23.7319103,"tags":{"addr:city":"\u0391\u03b8\u03ae\u03bd\u03b1","addr:housenumber":"1","addr:street":"\u03a4\u03ae\u03bd\u03bf\u03c5"}},{"type":"node","id":6447459150,"lat":37.9986553,"lon":23.7319032,"tags":{"addr:city":"\u0391\u03b8\u03ae\u03bd\u03b1","addr:housenumber":"2","addr:street":"\u03a4\u03ae\u03bd\u03bf\u03c5"}},{"type":"node","id":9775438900,"lat":37.998347,"lon":23.7316834,"tags":{"addr:city":"\u0391\u03b8\u03ae\u03bd\u03b1","addr:housenumber":"156","addr:street":"3\u03b7\u03c2 \u03a3\u03b5\u03c0\u03c4\u03b5\u03bc\u03b2\u03c1\u03af\u03bf\u03c5","name":"\u0396\u03b7\u03c4\u03b1gadget","shop":"mobile_phone"}},{"type":"node","id":9775443371,"lat":37.9984696,"lon":23.7317424,"tags":{"addr:city":"\u0391\u03b8\u03ae\u03bd\u03b1","addr:housenumber":"158","addr:street":"3\u03b7\u03c2 \u03a3\u03b5\u03c0\u03c4\u03b5\u03bc\u03b2\u03c1\u03af\u03bf\u03c5","name":"\u039b\u03bf\u03b3\u03b9\u03c3\u03c4\u03b9\u03ba\u03cc \u03b3\u03c1\u03b1\u03c6\u03b5\u03af\u03bf","office":"accountant"}},{"type":"node","id":9775473265,"lat":37.998927,"lon":23.7315137,"tags":{"amenity":"parking","fee":"yes"}},{"type":"node","id":9775475299,"lat":37.9982963,"lon":23.731662,"tags":{"addr:city":"\u0391\u03b8\u03ae\u03bd\u03b1","addr:housenumber":"156","addr:street":"3\u03b7\u03c2 \u03a3\u03b5\u03c0\u03c4\u03b5\u03bc\u03b2\u03c1\u03af\u03bf\u03c5","shop":"convenience"}},{"type":"node","id":10199364762,"lat":37.998789,"lon":23.7317869,"tags":{"addr:city":"\u0391\u03b8\u03ae\u03bd\u03b1","addr:housenumber":"164","addr:street":"3\u03b7\u03c2 \u03a3\u03b5\u03c0\u03c4\u03b5\u03bc\u03b2\u03c1\u03af\u03bf\u03c5","shop":"convenience"}}]}