{"version":0.6,"generator":"Overpass API 0.7.61.5 4133829e","osm3s":{"timestamp_osm_base":"2023-08-16T11:06:35Z","copyright":"The data included in this document is from www.openstreetmap.org. The data is made available under ODbL."},"elements":[{"type":"node","id":1609046839,"lat":38.0002712,"lon":23.7312103,"tags":{"addr:city":"\u0391\u03b8\u03ae\u03bd\u03b1","addr:country":"GR","addr:housenumber":"77","addr:postcode":"11251","addr:street":"\u0391\u03b3\u03af\u03bf\u03c5 \u039c\u03b5\u03bb\u03b5\u03c4\u03af\u03bf\u03c5"}},{"type":"node","id":1609046851,"lat":38.0002992,"lon":23.7309883,"tags":{"addr:city":"\u0391\u03b8\u03ae\u03bd\u03b1","addr:country":"GR","addr:housenumber":"79","addr:postcode":"11251","addr:street":"\u0391\u03b3\u03af\u03bf\u03c5 \u039c\u03b5\u03bb\u03b5\u03c4\u03af\u03bf\u03c5"}},{"type":"node","id":1649205867,"lat":37.9996643,"lon":23.7307245,"tags":{"addr:city":"\u0391\u03b8\u03ae\u03bd\u03b1","addr:country":"GR","addr:housenumber":"174","addr:postcode":"11251","addr:street":"\u0391\u03c1\u03b9\u03c3\u03c4\u03bf\u03c4\u03ad\u03bb\u03bf\u03c5\u03c2"}},{"type":"node","id":1649205874,"lat":37.9996685,"lon":23.7304728,"tags":{"addr:city":"\u0391\u03b8\u03ae\u03bd\u03b1","addr:country":"GR","addr:housenumber":"181","addr:postcode":"11251","addr:street":"\u0391\u03c1\u03b9\u03c3\u03c4\u03bf\u03c4\u03ad\u03bb\u03bf\u03c5\u03c2"}},{"type":"node","id":1649205875,"lat":38.0002845,"lon":23.7308916,"tags":{"addr:city":"\u0391\u03b8\u03ae\u03bd\u03b1","addr:country":"GR","addr:housenumber":"182","addr:postcode":"11251","addr:street":"\u0391\u03c1\u03b9\u03c3\u03c4\u03bf\u03c4\u03ad\u03bb\u03bf\u03c5\u03c2"}},{"type":"node","id":1758398567,"lat":37.9996612,"lon":23.7312059,"tags":{"addr:city":"\u0391\u03b8\u03ae\u03bd\u03b1","addr:country":"GR","addr:housenumber":"65","addr:postcode":"11251","addr:street":"\u0399\u03b8\u03ac\u03ba\u03b7\u03c2"}},{"type":"node","id":9871933878,"lat":38.0000389,"lon":23.7305354,"tags":{"addr:city":"\u0391\u03b8\u03ae\u03bd\u03b1","addr:housenumber":"187\u0391","addr:street":"\u0391\u03c1\u03b9\u03c3\u03c4\u03bf\u03c4\u03ad\u03bb\u03bf\u03c5\u03c2","brand":"\u039f\u03a0\u0391\u03a0","brand:wikidata":"Q2007823","name":"\u039f\u03a0\u0391\u03a0","shop":"bookmaker"}}]}