{"version":0.6,"generator":"Overpass API 0.7.61.5 4133829e","osm3s":{"timestamp_osm_base":"2023-08-16T11:20:00Z","copyright":"The data included in this document is from www.openstreetmap.org. The data is made available under ODbL."},"elements":[{"type":"node","id":1649205913,"lat":38.0002324,"lon":23.7243905,"tags":{"addr:city":"\u0391\u03b8\u03ae\u03bd\u03b1","addr:country":"GR","addr:housenumber":"37","addr:postcode":"10446","addr:street":"\u03a3\u03c9\u03b6\u03bf\u03c0\u03cc\u03bb\u03b5\u03c9\u03c2"}},{"type":"node","id":1649205914,"lat":38.0002645,"lon":23.7241494,"tags":{"addr:city":"\u0391\u03b8\u03ae\u03bd\u03b1","addr:country":"GR","addr:housenumber":"39","addr:postcode":"10446","addr:street":"\u03a3\u03c9\u03b6\u03bf\u03c0\u03cc\u03bb\u03b5\u03c9\u03c2"}},{"type":"node","id":2517499203,"lat":37.9997352,"lon":23.7243124,"tags":{"addr:city":"\u0391\u03b8\u03ae\u03bd\u03b1","addr:country":"GR","addr:housenumber":"102","addr:postcode":"10446","addr:street":"\u0391\u03c1\u03b9\u03c3\u03c4\u03bf\u03bc\u03ad\u03bd\u03bf\u03c5\u03c2"}},{"type":"node","id":2517499204,"lat":37.9998375,"lon":23.724317,"tags":{"addr:city":"\u0391\u03b8\u03ae\u03bd\u03b1","addr:country":"GR","addr:housenumber":"104","addr:postcode":"10446","addr:street":"\u0391\u03c1\u03b9\u03c3\u03c4\u03bf\u03bc\u03ad\u03bd\u03bf\u03c5\u03c2"}},{"type":"node","id":2517499205,"lat":37.999926,"lon":23.7243224,"tags":{"addr:city":"\u0391\u03b8\u03ae\u03bd\u03b1","addr:country":"GR","addr:housenumber":"106","addr:postcode":"10446","addr:street":"\u0391\u03c1\u03b9\u03c3\u03c4\u03bf\u03bc\u03ad\u03bd\u03bf\u03c5\u03c2"}},{"type":"node","id":2517499207,"lat":38.0000573,"lon":23.7243327,"tags":{"addr:city":"\u0391\u03b8\u03ae\u03bd\u03b1","addr:country":"GR","addr:housenumber":"108","addr:postcode":"10446","addr:street":"\u0391\u03c1\u03b9\u03c3\u03c4\u03bf\u03bc\u03ad\u03bd\u03bf\u03c5\u03c2"}},{"type":"node","id":2517499215,"lat":38.0001285,"lon":23.7243404,"tags":{"addr:city":"\u0391\u03b8\u03ae\u03bd\u03b1","addr:country":"GR","addr:housenumber":"110","addr:postcode":"10446","addr:street":"\u0391\u03c1\u03b9\u03c3\u03c4\u03bf\u03bc\u03ad\u03bd\u03bf\u03c5\u03c2"}},{"type":"node","id":2517499216,"lat":38.0002373,"lon":23.7241569,"tags":{"addr:city":"\u0391\u03b8\u03ae\u03bd\u03b1","addr:country":"GR","addr:housenumber":"111","addr:postcode":"10446","addr:street":"\u0391\u03c1\u03b9\u03c3\u03c4\u03bf\u03bc\u03ad\u03bd\u03bf\u03c5\u03c2"}},{"type":"node","id":2517499218,"lat":38.0002153,"lon":23.7243506,"tags":{"addr:city":"\u0391\u03b8\u03ae\u03bd\u03b1","addr:country":"GR","addr:housenumber":"112","addr:postcode":"10446","addr:street":"\u0391\u03c1\u03b9\u03c3\u03c4\u03bf\u03bc\u03ad\u03bd\u03bf\u03c5\u03c2"}},{"type":"node","id":4520282641,"lat":37.9997274,"lon":23.723959,"tags":{"amenity":"school","name":"50\u03bf \u0394\u03b7\u03bc\u03bf\u03c4\u03b9\u03ba\u03cc \u03a3\u03c7\u03bf\u03bb\u03b5\u03af\u03bf \u0391\u03b8\u03b7\u03bd\u03ce\u03bd"}},{"type":"node","id":5168763667,"lat":37.9999873,"lon":23.7243273,"tags":{"addr:city":"\u0391\u03b8\u03ae\u03bd\u03b1","addr:housenumber":"108","addr:street":"\u0391\u03c1\u03b9\u03c3\u03c4\u03bf\u03bc\u03ad\u03bd\u03bf\u03c5\u03c2","shop":"convenience"}}]}