{"version":0.6,"generator":"Overpass API 0.7.61.5 4133829e","osm3s":{"timestamp_osm_base":"2023-08-16T11:09:40Z","copyright":"The data included in this document is from www.openstreetmap.org. The data is made available under ODbL."},"elements":[{"type":"node","id":3900080557,"lat":37.9992758,"lon":23.7326496,"tags":{"name":"\u0395\u039b\u039a\u0395\/\u039f\u03a0\u0391","office":"yes"}},{"type":"node","id":4396694874,"lat":37.9990813,"lon":23.7327824,"tags":{"addr:city":"\u0391\u03b8\u03ae\u03bd\u03b1","addr:housenumber":"51","addr:street":"\u039a\u03b5\u03c6\u03b1\u03bb\u03bb\u03b7\u03bd\u03af\u03b1\u03c2","sex":"male","shop":"hairdresser"}},{"type":"node","id":4678765917,"lat":37.999309,"lon":23.732977,"tags":{"name":"Dust + Cream","opening_hours":"Tu,Th,Fr 09:00-21:00; Sa 09:00-17:00; Su off; Mo,We 09:00-18:00","phone":"+302108224734","shop":"cosmetics","website":"https:\/\/dustandcream.gr\/"}},{"type":"node","id":4711246478,"lat":37.9992237,"lon":23.7329583,"tags":{"clothes":"children","name":"Lapin House","shop":"clothes"}},{"type":"node","id":4943173294,"lat":37.9992793,"lon":23.7329736,"tags":{"brand":"United Colors of Benetton","brand:wikidata":"Q817139","brand:wikipedia":"en:Benetton Group","name":"United Colors of Benetton","shop":"clothes","short_name":"Benetton"}},{"type":"node","id":5355672838,"lat":37.9990336,"lon":23.7328667,"tags":{"addr:city":"\u0391\u03b8\u03ae\u03bd\u03b1","addr:housenumber":"141","addr:street":"\u03a0\u03b1\u03c4\u03b7\u03c3\u03af\u03c9\u03bd","clothes":"women","name":"Apopsis","shop":"clothes"}},{"type":"node","id":5454220108,"lat":37.9992663,"lon":23.732712,"tags":{"amenity":"pharmacy","healthcare":"pharmacy"}},{"type":"node","id":6017701716,"lat":37.9993437,"lon":23.7329836,"tags":{"clothes":"underwear","facebook":"https:\/\/www.facebook.com\/isabelle.shops\/","name":"Isabelle","shop":"clothes"}},{"type":"node","id":6024626343,"lat":37.999394,"lon":23.7329903,"tags":{"amenity":"pharmacy","dispensing":"yes","healthcare":"pharmacy"}},{"type":"node","id":6779394643,"lat":37.9990845,"lon":23.7328779,"tags":{"name":"F","shop":"bakery"}},{"type":"node","id":9929533762,"lat":37.9991003,"lon":23.7326054,"tags":{"addr:city":"\u0391\u03b8\u03ae\u03bd\u03b1","addr:housenumber":"53","addr:street":"\u039a\u03b5\u03c6\u03b1\u03bb\u03bb\u03b7\u03bd\u03af\u03b1\u03c2","shop":"convenience"}},{"type":"node","id":10178222092,"lat":37.9989956,"lon":23.7328586,"tags":{"addr:housenumber":"141","addr:street":"28\u03b7\u03c2 \u039f\u03ba\u03c4\u03c9\u03b2\u03c1\u03af\u03bf\u03c5","name":"Virginia Constantine","shop":"hairdresser"}},{"type":"node","id":10178236215,"lat":37.9989595,"lon":23.7328413,"tags":{"name":"\u039a\u03bf\u03c5\u03bb\u03bf\u03c5\u03c1\u03ac\u03b4\u03b5\u03c2","shop":"bakery"}}]}