{"version":0.6,"generator":"Overpass API 0.7.61.5 4133829e","osm3s":{"timestamp_osm_base":"2023-08-16T11:06:35Z","copyright":"The data included in this document is from www.openstreetmap.org. The data is made available under ODbL."},"elements":[{"type":"node","id":1649206002,"lat":37.9998972,"lon":23.7286877,"tags":{"addr:city":"\u0391\u03b8\u03ae\u03bd\u03b1","addr:country":"GR","addr:housenumber":"90","addr:postcode":"11251","addr:street":"\u039a\u03b5\u03c6\u03b1\u03bb\u03bb\u03b7\u03bd\u03af\u03b1\u03c2"}},{"type":"node","id":1649206010,"lat":37.9999335,"lon":23.7284865,"tags":{"addr:city":"\u0391\u03b8\u03ae\u03bd\u03b1","addr:country":"GR","addr:housenumber":"92","addr:postcode":"11251","addr:street":"\u039a\u03b5\u03c6\u03b1\u03bb\u03bb\u03b7\u03bd\u03af\u03b1\u03c2"}},{"type":"node","id":7862975588,"lat":37.999963,"lon":23.7285034,"tags":{"addr:city":"\u0391\u03b8\u03ae\u03bd\u03b1","addr:housenumber":"1","addr:street":"\u039d\u03b5\u03ba\u03c4\u03b1\u03c1\u03af\u03bf\u03c5"}},{"type":"node","id":9872018065,"lat":37.9997065,"lon":23.7285264,"tags":{"addr:city":"\u0391\u03b8\u03ae\u03bd\u03b1","addr:housenumber":"97","addr:postcode":"11251","addr:street":"\u039a\u03b5\u03c6\u03b1\u03bb\u03bb\u03b7\u03bd\u03af\u03b1\u03c2","leisure":"fitness_centre","name":"\u03a6\u03bf\u03af\u03b2\u03bf\u03c2","operator":"\u0391\u03b8\u03bb\u03b7\u03c4\u03b9\u03ba\u03cc\u03c2 \u03a3\u03cd\u03bb\u03bb\u03bf\u03b3\u03bf\u03c2 \u03a6\u03bf\u03af\u03b2\u03bf\u03c2 \u0391\u03c7\u03b1\u03c1\u03bd\u03ce\u03bd","phone":"2108627031","website":"https:\/\/fivosgym.business.site\/"}},{"type":"node","id":9872022780,"lat":38.000002,"lon":23.7281315,"tags":{"addr:city":"\u0391\u03b8\u03ae\u03bd\u03b1","addr:housenumber":"102","addr:street":"\u039a\u03b5\u03c6\u03b1\u03bb\u03bb\u03b7\u03bd\u03af\u03b1\u03c2","name":"Market In","shop":"supermarket"}},{"type":"node","id":9881635346,"lat":37.9999791,"lon":23.7279083,"tags":{"amenity":"fuel","brand":"Revoil","brand:wikidata":"Q62530755","name":"REVOIL","operator":"\u03a7\u03a1\u03a5\u03a3\u0397 \u0391\u0399\u039a\u0391\u03a4\u0395\u03a1\u0399\u039d\u0397 + \u03a3\u0399\u0391 \u039f.\u0395."}}]}