{"version":0.6,"generator":"Overpass API 0.7.61.5 4133829e","osm3s":{"timestamp_osm_base":"2023-08-16T11:28:16Z","copyright":"The data included in this document is from www.openstreetmap.org. The data is made available under ODbL."},"elements":[{"type":"node","id":2870893268,"lat":37.9969941,"lon":23.7364085,"tags":{"addr:city":"\u0391\u03b8\u03ae\u03bd\u03b1","addr:country":"GR","addr:housenumber":"22","addr:postcode":"11362","addr:street":"\u039a\u03c5\u03c8\u03ad\u03bb\u03b7\u03c2"}},{"type":"node","id":7003692976,"lat":37.9970875,"lon":23.7362705,"tags":{"amenity":"cafe","cuisine":"cretan","facebook":"https:\/\/www.facebook.com\/Mpergiavlo\/","name":"\u03a4\u03bf \u03bc\u03c0\u03ad\u03c1\u03b3\u03b9\u03b1\u03c5\u03bb\u03bf","outdoor_seating":"yes","phone":"2108234372"}},{"type":"node","id":8062926762,"lat":37.9969268,"lon":23.7362612,"tags":{"highway":"stop"}},{"type":"node","id":9366936347,"lat":37.9969642,"lon":23.7362107,"tags":{"highway":"crossing"}},{"type":"node","id":9457048367,"lat":37.9969666,"lon":23.7360914,"tags":{"name":"\u03a0\u03c1\u03cc\u03c4\u03b1\u03c3\u03b7","shop":"estate_agent"}},{"type":"node","id":9457083044,"lat":37.9969218,"lon":23.7360351,"tags":{"phone":"+302108817968","shop":"funeral_directors"}},{"type":"node","id":9457083045,"lat":37.9975392,"lon":23.7355913,"tags":{"brand":"\u039f\u03a0\u0391\u03a0","brand:wikidata":"Q2007823","brand:wikipedia":"el:\u039f\u03a0\u0391\u03a0","name":"\u039f\u03a0\u0391\u03a0","shop":"bookmaker"}},{"type":"node","id":9457086461,"lat":37.9971168,"lon":23.7363099,"tags":{"amenity":"bar","name":"Black Hole","opening_hours":"Tu-Sa 14:00-00:00; Su 17:00-00:00"}},{"type":"node","id":9457091977,"lat":37.9971415,"lon":23.7363426,"tags":{"name":"Kazi","shop":"convenience"}},{"type":"node","id":9457098028,"lat":37.9970586,"lon":23.736231,"tags":{"craft":"electrician","opening_hours":"Mo-Fr 09:00-17:00; Sa 09:00-15:00","phone":"+302108812218"}},{"type":"node","id":9507140688,"lat":37.996965,"lon":23.7362096,"tags":{"highway":"stop"}},{"type":"node","id":10118330049,"lat":37.9975909,"lon":23.7362424,"tags":{"name":"\u039a\u03c9\u03bd\u03c3\u03c4\u03b1\u03bd\u03c4\u03b9\u03bd\u03af\u03b4\u03b7\u03c2","shop":"paint"}},{"type":"node","id":10118336476,"lat":37.9975671,"lon":23.7364146,"tags":{"amenity":"driving_school","name":"\u0398\u03b5\u03bf\u03c7\u03ac\u03c1\u03b7\u03c2"}}]}