{"version":0.6,"generator":"Overpass API 0.7.61.5 4133829e","osm3s":{"timestamp_osm_base":"2023-08-16T11:24:11Z","copyright":"The data included in this document is from www.openstreetmap.org. The data is made available under ODbL."},"elements":[{"type":"node","id":2475332238,"lat":37.9936594,"lon":23.7243192,"tags":{"addr:city":"\u0391\u03b8\u03ae\u03bd\u03b1","addr:country":"GR","addr:housenumber":"41","addr:postcode":"10440","addr:street":"\u0391\u03bb\u03ba\u03b1\u03bc\u03ad\u03bd\u03bf\u03c5\u03c2"}},{"type":"node","id":2475332240,"lat":37.9937752,"lon":23.7243087,"tags":{"addr:city":"\u0391\u03b8\u03ae\u03bd\u03b1","addr:country":"GR","addr:housenumber":"43","addr:postcode":"10440","addr:street":"\u0391\u03bb\u03ba\u03b1\u03bc\u03ad\u03bd\u03bf\u03c5\u03c2"}},{"type":"node","id":2475332242,"lat":37.9939146,"lon":23.7243117,"tags":{"addr:city":"\u0391\u03b8\u03ae\u03bd\u03b1","addr:country":"GR","addr:housenumber":"45","addr:postcode":"10440","addr:street":"\u0391\u03bb\u03ba\u03b1\u03bc\u03ad\u03bd\u03bf\u03c5\u03c2"}},{"type":"node","id":2475332245,"lat":37.9941829,"lon":23.7243477,"tags":{"addr:city":"\u0391\u03b8\u03ae\u03bd\u03b1","addr:country":"GR","addr:housenumber":"47","addr:postcode":"10440","addr:street":"\u0391\u03bb\u03ba\u03b1\u03bc\u03ad\u03bd\u03bf\u03c5\u03c2"}},{"type":"node","id":2517499197,"lat":37.9936289,"lon":23.7236803,"tags":{"addr:city":"\u0391\u03b8\u03ae\u03bd\u03b1","addr:country":"GR","addr:housenumber":"10","addr:postcode":"10440","addr:street":"\u0391\u03c1\u03b9\u03c3\u03c4\u03bf\u03bc\u03ad\u03bd\u03bf\u03c5\u03c2"}},{"type":"node","id":2517499230,"lat":37.9937336,"lon":23.7237002,"tags":{"addr:city":"\u0391\u03b8\u03ae\u03bd\u03b1","addr:country":"GR","addr:housenumber":"12","addr:postcode":"10440","addr:street":"\u0391\u03c1\u03b9\u03c3\u03c4\u03bf\u03bc\u03ad\u03bd\u03bf\u03c5\u03c2"}},{"type":"node","id":2517499243,"lat":37.9938459,"lon":23.7237033,"tags":{"addr:city":"\u0391\u03b8\u03ae\u03bd\u03b1","addr:country":"GR","addr:housenumber":"14","addr:postcode":"10440","addr:street":"\u0391\u03c1\u03b9\u03c3\u03c4\u03bf\u03bc\u03ad\u03bd\u03bf\u03c5\u03c2"}},{"type":"node","id":2517499252,"lat":37.9939679,"lon":23.7237063,"tags":{"addr:city":"\u0391\u03b8\u03ae\u03bd\u03b1","addr:country":"GR","addr:housenumber":"16","addr:postcode":"10440","addr:street":"\u0391\u03c1\u03b9\u03c3\u03c4\u03bf\u03bc\u03ad\u03bd\u03bf\u03c5\u03c2"}},{"type":"node","id":7342980481,"lat":37.9935391,"lon":23.7243983,"tags":{"highway":"stop"}},{"type":"node","id":7343007601,"lat":37.9940767,"lon":23.7236772,"tags":{"highway":"stop"}},{"type":"node","id":10284285641,"lat":37.9935872,"lon":23.7237676,"tags":{"addr:city":"\u0391\u03b8\u03ae\u03bd\u03b1","addr:housenumber":"40","addr:street":"\u03a0\u03b1\u03b9\u03c9\u03bd\u03af\u03bf\u03c5"}},{"type":"node","id":10284326978,"lat":37.9935808,"lon":23.7236791,"tags":{"addr:city":"\u0391\u03b8\u03ae\u03bd\u03b1","addr:housenumber":"40","addr:street":"\u03a0\u03b1\u03b9\u03c9\u03bd\u03af\u03bf\u03c5","shop":"mobile_phone"}}]}