{"version":0.6,"generator":"Overpass API 0.7.61.5 4133829e","osm3s":{"timestamp_osm_base":"2023-08-16T11:14:51Z","copyright":"The data included in this document is from www.openstreetmap.org. The data is made available under ODbL."},"elements":[{"type":"node","id":1628420239,"lat":37.9951046,"lon":23.7254702,"tags":{"addr:city":"\u0391\u03b8\u03ae\u03bd\u03b1","addr:country":"GR","addr:housenumber":"82","addr:postcode":"10440","addr:street":"\u039c\u03b9\u03c7\u03b1\u03ae\u03bb \u0392\u03cc\u03b4\u03b1"}},{"type":"node","id":1628420241,"lat":37.9952769,"lon":23.7254814,"tags":{"addr:city":"\u0391\u03b8\u03ae\u03bd\u03b1","addr:country":"GR","addr:housenumber":"84","addr:postcode":"10440","addr:street":"\u039c\u03b9\u03c7\u03b1\u03ae\u03bb \u0392\u03cc\u03b4\u03b1"}},{"type":"node","id":1628420242,"lat":37.9953831,"lon":23.7254886,"tags":{"addr:city":"\u0391\u03b8\u03ae\u03bd\u03b1","addr:country":"GR","addr:housenumber":"86","addr:postcode":"10440","addr:street":"\u039c\u03b9\u03c7\u03b1\u03ae\u03bb \u0392\u03cc\u03b4\u03b1"}},{"type":"node","id":1741476870,"lat":37.9953551,"lon":23.7261308,"tags":{"addr:city":"\u0391\u03b8\u03ae\u03bd\u03b1","addr:country":"GR","addr:housenumber":"11","addr:postcode":"10440","addr:street":"\u03a0\u03b1\u03c1\u03b1\u03c3\u03af\u03bf\u03c5"}},{"type":"node","id":1741476888,"lat":37.9953807,"lon":23.7255468,"tags":{"addr:city":"\u0391\u03b8\u03ae\u03bd\u03b1","addr:country":"GR","addr:housenumber":"17","addr:postcode":"10440","addr:street":"\u03a0\u03b1\u03c1\u03b1\u03c3\u03af\u03bf\u03c5"}},{"type":"node","id":7343152176,"lat":37.9951755,"lon":23.7254309,"tags":{"highway":"stop"}},{"type":"node","id":7343197848,"lat":37.9954189,"lon":23.7253908,"tags":{"highway":"traffic_signals","traffic_signals":"signal"}},{"type":"node","id":7343197849,"lat":37.9954658,"lon":23.7253215,"tags":{"highway":"traffic_signals","traffic_signals":"signal"}}]}