{"version":0.6,"generator":"Overpass API 0.7.61.5 4133829e","osm3s":{"timestamp_osm_base":"2023-08-16T11:24:11Z","copyright":"The data included in this document is from www.openstreetmap.org. The data is made available under ODbL."},"elements":[{"type":"node","id":1741476941,"lat":37.9956806,"lon":23.7232142,"tags":{"addr:city":"\u0391\u03b8\u03ae\u03bd\u03b1","addr:country":"GR","addr:housenumber":"38","addr:postcode":"10440","addr:street":"\u03a0\u03b1\u03c1\u03b1\u03c3\u03af\u03bf\u03c5"}},{"type":"node","id":1741476942,"lat":37.9956594,"lon":23.7228495,"tags":{"addr:city":"\u0391\u03b8\u03ae\u03bd\u03b1","addr:country":"GR","addr:housenumber":"40","addr:postcode":"10440","addr:street":"\u03a0\u03b1\u03c1\u03b1\u03c3\u03af\u03bf\u03c5"}},{"type":"node","id":1753890106,"lat":37.9957344,"lon":23.7229605,"tags":{"addr:city":"\u0391\u03b8\u03ae\u03bd\u03b1","addr:country":"GR","addr:housenumber":"1","addr:postcode":"10440","addr:street":"\u0391\u03b4\u03bc\u03ae\u03c4\u03bf\u03c5"}},{"type":"node","id":1753890159,"lat":37.9957069,"lon":23.7231516,"tags":{"addr:city":"\u0391\u03b8\u03ae\u03bd\u03b1","addr:country":"GR","addr:housenumber":"2","addr:postcode":"10440","addr:street":"\u0391\u03b4\u03bc\u03ae\u03c4\u03bf\u03c5"}},{"type":"node","id":1753890262,"lat":37.9961732,"lon":23.722998,"tags":{"addr:city":"\u0391\u03b8\u03ae\u03bd\u03b1","addr:country":"GR","addr:housenumber":"9","addr:postcode":"10440","addr:street":"\u0391\u03b4\u03bc\u03ae\u03c4\u03bf\u03c5"}},{"type":"node","id":2601232744,"lat":37.9961978,"lon":23.7230041,"tags":{"amenity":"bank","atm":"yes","brand":"\u03a4\u03c1\u03ac\u03c0\u03b5\u03b6\u03b1 \u03a0\u03b5\u03b9\u03c1\u03b1\u03b9\u03ce\u03c2","brand:el":"\u03a4\u03c1\u03ac\u03c0\u03b5\u03b6\u03b1 \u03a0\u03b5\u03b9\u03c1\u03b1\u03b9\u03ce\u03c2","brand:en":"Piraeus Bank","brand:wikidata":"Q3312","brand:wikipedia":"en:Piraeus Bank","name":"\u03a4\u03c1\u03ac\u03c0\u03b5\u03b6\u03b1 \u03a0\u03b5\u03b9\u03c1\u03b1\u03b9\u03ce\u03c2","name:el":"\u03a4\u03c1\u03ac\u03c0\u03b5\u03b6\u03b1 \u03a0\u03b5\u03b9\u03c1\u03b1\u03b9\u03ce\u03c2","name:en":"Piraeus Bank","short_name":"\u03a0\u03b5\u03b9\u03c1\u03b1\u03b9\u03ce\u03c2","short_name:el":"\u03a0\u03b5\u03b9\u03c1\u03b1\u03b9\u03ce\u03c2","short_name:en":"Piraeus"}},{"type":"node","id":10092592017,"lat":37.9962155,"lon":23.7228188,"tags":{"amenity":"pharmacy","healthcare":"pharmacy","name":"\u0394\u03b7\u03bc\u03ae\u03c4\u03c1\u03b9\u03bf\u03c2 \u039c\u03c0\u03b1\u03bb\u03c4\u03ac\u03c2"}}]}