{"version":0.6,"generator":"Overpass API 0.7.61.5 4133829e","osm3s":{"timestamp_osm_base":"2023-08-16T11:21:01Z","copyright":"The data included in this document is from www.openstreetmap.org. The data is made available under ODbL."},"elements":[{"type":"node","id":1773646155,"lat":38.0026898,"lon":23.7278456,"tags":{"addr:city":"\u0391\u03b8\u03ae\u03bd\u03b1","addr:country":"GR","addr:housenumber":"189","addr:postcode":"10446","addr:street":"\u0391\u03c7\u03b1\u03c1\u03bd\u03ce\u03bd"}},{"type":"node","id":6215045869,"lat":38.0024553,"lon":23.727841,"tags":{"crossing":"traffic_signals","highway":"crossing"}},{"type":"node","id":6279842620,"lat":38.002457,"lon":23.727828,"tags":{"highway":"traffic_signals","traffic_signals":"signal"}},{"type":"node","id":10221008718,"lat":38.0025175,"lon":23.7278146,"tags":{"addr:city":"\u0391\u03b8\u03ae\u03bd\u03b1","addr:housenumber":"189","addr:street":"\u0391\u03c7\u03b1\u03c1\u03bd\u03ce\u03bd","amenity":"fast_food","cuisine":"pizza","name":"My Pizza Place"}},{"type":"node","id":10221017717,"lat":38.0025682,"lon":23.7278227,"tags":{"addr:city":"\u0391\u03b8\u03ae\u03bd\u03b1","addr:housenumber":"189","addr:street":"\u0391\u03c7\u03b1\u03c1\u03bd\u03ce\u03bd","amenity":"cafe","brand":"Coffee Island","brand:wikidata":"Q60867333","cuisine":"coffee_shop","name":"Coffee Island","takeaway":"yes"}},{"type":"node","id":10294223109,"lat":38.0024108,"lon":23.7277797,"tags":{"addr:city":"\u0391\u03b8\u03ae\u03bd\u03b1","addr:housenumber":"187","addr:street":"\u0391\u03c7\u03b1\u03c1\u03bd\u03ce\u03bd","clothes":"men","shop":"clothes"}},{"type":"node","id":10574647612,"lat":38.0023864,"lon":23.7276897,"tags":{"addr:city":"\u0391\u03b8\u03ae\u03bd\u03b1","addr:housenumber":"85","addr:street":"\u0398\u03ae\u03c1\u03b1\u03c2"}}]}