{"version":0.6,"generator":"Overpass API 0.7.61.5 4133829e","osm3s":{"timestamp_osm_base":"2023-08-16T11:21:01Z","copyright":"The data included in this document is from www.openstreetmap.org. The data is made available under ODbL."},"elements":[{"type":"node","id":2865047692,"lat":38.0025155,"lon":23.7331064,"tags":{"alt_name:fr":"Plat\u00eda Amerik\u00eds","name":"\u03a0\u03bb\u03b1\u03c4\u03b5\u03af\u03b1 \u0391\u03bc\u03b5\u03c1\u03b9\u03ba\u03ae\u03c2","name:fr":"Place de l'Am\u00e9rique","place":"neighbourhood"}},{"type":"node","id":4378066326,"lat":38.0023935,"lon":23.7337828,"tags":{"addr:city":"\u0391\u03b8\u03ae\u03bd\u03b1","addr:street":"\u03a0\u03b1\u03c4\u03b7\u03c3\u03af\u03c9\u03bd","name:signed":"no","shop":"kiosk"}},{"type":"node","id":4387668610,"lat":38.0025219,"lon":23.7338291,"tags":{"amenity":"recycling","colour":"yellow","material":"plastic","recycling:paper":"yes","recycling_type":"container"}},{"type":"node","id":4396687862,"lat":38.002557,"lon":23.7338367,"tags":{"addr:city":"\u0391\u03b8\u03ae\u03bd\u03b1","addr:street":"\u03a0\u03b1\u03c4\u03b7\u03c3\u03af\u03c9\u03bd","amenity":"recycling","recycling:glass":"yes"}},{"type":"node","id":4719976478,"lat":38.0028337,"lon":23.7338248,"tags":{"name":"City Mobile","shop":"mobile_phone"}},{"type":"node","id":5577719130,"lat":38.0023785,"lon":23.7336004,"tags":{"amenity":"fountain"}},{"type":"node","id":6633660204,"lat":38.0028452,"lon":23.7337124,"tags":{"amenity":"cafe","name":"Merkato"}},{"type":"node","id":6742668350,"lat":38.002841,"lon":23.733771,"tags":{"name":"Maken Travel","shop":"travel_agency"}},{"type":"node","id":7535392866,"lat":38.0028518,"lon":23.7334342,"tags":{"name":"Zahir & Sons","shop":"convenience"}},{"type":"node","id":8808820438,"lat":38.0028907,"lon":23.7331021,"tags":{"name":"\u03a0\u0395\u039b\u0399\u03a4","shop":"confectionery"}},{"type":"node","id":9492898414,"lat":38.002672,"lon":23.7332557,"tags":{"name":"Exis","tourism":"hotel"}},{"type":"node","id":10069393343,"lat":38.0024627,"lon":23.7338099,"tags":{"bench":"yes","bin":"yes","bus":"yes","highway":"bus_stop","lit":"no","name":"\u03a0\u039b\u0391\u03a4\u0395\u0399\u0391 \u0391\u039c\u0395\u03a1\u0399\u039a\u0397\u03a3","network":"\u039f\u0391\u03a3\u0391","network:el":"\u039f\u0391\u03a3\u0391","network:en":"OASA","network:wikidata":"Q1814382","passenger_information_display":"yes","public_transport":"platform","ref":"060880","shelter":"yes"}},{"type":"node","id":10213933892,"lat":38.0023944,"lon":23.7332234,"tags":{"addr:city":"\u0391\u03b8\u03ae\u03bd\u03b1","addr:street":"\u03a0\u03bb\u03b1\u03c4\u03b5\u03af\u03b1 \u0391\u03bc\u03b5\u03c1\u03b9\u03ba\u03ae\u03c2","amenity":"cafe","name":"London club"}},{"type":"node","id":10555527240,"lat":38.0029335,"lon":23.7333441,"tags":{"addr:city":"\u0391\u03b8\u03ae\u03bd\u03b1","addr:housenumber":"2","addr:street":"\u039b\u03b5\u03c5\u03ba\u03c9\u03c3\u03af\u03b1\u03c2"}},{"type":"node","id":10829866573,"lat":38.0027214,"lon":23.7331402,"tags":{"addr:city":"\u0391\u03b8\u03ae\u03bd\u03b1","addr:housenumber":"1","addr:street":"\u03a3\u03c0\u03ac\u03c1\u03c4\u03b7\u03c2"}}]}