{"version":0.6,"generator":"Overpass API 0.7.61.5 4133829e","osm3s":{"timestamp_osm_base":"2023-08-16T11:16:56Z","copyright":"The data included in this document is from www.openstreetmap.org. The data is made available under ODbL."},"elements":[{"type":"node","id":360832343,"lat":38.0007263,"lon":23.7346106,"tags":{"highway":"traffic_signals"}},{"type":"node","id":1051391574,"lat":38.0007614,"lon":23.7346754,"tags":{"highway":"crossing"}},{"type":"node","id":2800842541,"lat":38.0007189,"lon":23.7342347,"tags":{"addr:city":"\u0391\u03b8\u03ae\u03bd\u03b1","addr:country":"GR","addr:housenumber":"1","addr:postcode":"11257","addr:street":"\u0391\u03b3\u03b1\u03b8\u03bf\u03c5\u03c0\u03cc\u03bb\u03b5\u03c9\u03c2"}},{"type":"node","id":2800842544,"lat":38.0009091,"lon":23.7338572,"tags":{"addr:city":"\u0391\u03b8\u03ae\u03bd\u03b1","addr:country":"GR","addr:housenumber":"10","addr:postcode":"11257","addr:street":"\u0391\u03b3\u03b1\u03b8\u03bf\u03c5\u03c0\u03cc\u03bb\u03b5\u03c9\u03c2"}},{"type":"node","id":2800845818,"lat":38.0007377,"lon":23.7341325,"tags":{"addr:city":"\u0391\u03b8\u03ae\u03bd\u03b1","addr:country":"GR","addr:housenumber":"3","addr:postcode":"11257","addr:street":"\u0391\u03b3\u03b1\u03b8\u03bf\u03c5\u03c0\u03cc\u03bb\u03b5\u03c9\u03c2"}},{"type":"node","id":2800845847,"lat":38.0008498,"lon":23.7342143,"tags":{"addr:city":"\u0391\u03b8\u03ae\u03bd\u03b1","addr:country":"GR","addr:housenumber":"4","addr:postcode":"11257","addr:street":"\u0391\u03b3\u03b1\u03b8\u03bf\u03c5\u03c0\u03cc\u03bb\u03b5\u03c9\u03c2"}},{"type":"node","id":2800845874,"lat":38.0007667,"lon":23.733972,"tags":{"addr:city":"\u0391\u03b8\u03ae\u03bd\u03b1","addr:country":"GR","addr:housenumber":"5","addr:postcode":"11257","addr:street":"\u0391\u03b3\u03b1\u03b8\u03bf\u03c5\u03c0\u03cc\u03bb\u03b5\u03c9\u03c2"}},{"type":"node","id":2800845896,"lat":38.0008696,"lon":23.7340891,"tags":{"addr:city":"\u0391\u03b8\u03ae\u03bd\u03b1","addr:country":"GR","addr:housenumber":"6","addr:postcode":"11257","addr:street":"\u0391\u03b3\u03b1\u03b8\u03bf\u03c5\u03c0\u03cc\u03bb\u03b5\u03c9\u03c2"}},{"type":"node","id":2800846132,"lat":38.0008906,"lon":23.7339659,"tags":{"addr:city":"\u0391\u03b8\u03ae\u03bd\u03b1","addr:country":"GR","addr:housenumber":"8","addr:postcode":"11257","addr:street":"\u0391\u03b3\u03b1\u03b8\u03bf\u03c5\u03c0\u03cc\u03bb\u03b5\u03c9\u03c2"}},{"type":"node","id":4658098857,"lat":38.0007968,"lon":23.734573,"tags":{"addr:city":"\u0391\u03b8\u03ae\u03bd\u03b1","addr:housenumber":"2","addr:postcode":"11257","addr:street":"\u0391\u03b3\u03b1\u03b8\u03bf\u03c5\u03c0\u03cc\u03bb\u03b5\u03c9\u03c2","name":"Wildflower","shop":"florist"}},{"type":"node","id":4658098858,"lat":38.0008671,"lon":23.7347007,"tags":{"addr:city":"\u0391\u03b8\u03ae\u03bd\u03b1","addr:housenumber":"13","addr:postcode":"11257","addr:street":"\u03a6\u03c9\u03ba\u03af\u03c9\u03bd\u03bf\u03c2 \u039d\u03ad\u03b3\u03c1\u03b7","name":"\u039a\u03bb\u03b5\u03b9\u03b4\u03b1\u03c1\u03ac\u03c2","opening_hours":"Fr 09:00-21:00; Sa 09:00-21:00; Su 09:00-21:00; Mo 09:00-21:00; Tu 09:00-21:00; We 09:00-21:00; Th 09:00-21:00","phone":"21 0864 9272","shop":"locksmith","website":"keysiamo.gr"}},{"type":"node","id":5177896207,"lat":38.0009228,"lon":23.7345636,"tags":{"addr:city":"\u0391\u03b8\u03ae\u03bd\u03b1","addr:housenumber":"2","addr:street":"\u0391\u03b3\u03b1\u03b8\u03bf\u03c5\u03c0\u03cc\u03bb\u03b5\u03c9\u03c2"}},{"type":"node","id":5325861446,"lat":38.0006569,"lon":23.7342688,"tags":{"addr:city":"\u0391\u03b8\u03ae\u03bd\u03b1","addr:housenumber":"9\u0391","addr:street":"\u03a6\u03c9\u03ba\u03af\u03c9\u03bd\u03bf\u03c2 \u039d\u03ad\u03b3\u03c1\u03b7"}},{"type":"node","id":5474284158,"lat":38.0009713,"lon":23.7346951,"tags":{"addr:city":"\u0391\u03b8\u03ae\u03bd\u03b1","addr:housenumber":"71","addr:street":"\u0399\u03c9\u03ac\u03bd\u03bd\u03bf\u03c5 \u0394\u03c1\u03bf\u03c3\u03bf\u03c0\u03bf\u03cd\u03bb\u03bf\u03c5"}},{"type":"node","id":5481565721,"lat":38.0004193,"lon":23.7342999,"tags":{"addr:city":"\u0391\u03b8\u03ae\u03bd\u03b1","addr:housenumber":"6","addr:street":"\u03a6\u03c9\u03ba\u03af\u03c9\u03bd\u03bf\u03c2 \u039d\u03ad\u03b3\u03c1\u03b7","shop":"travel_agency"}},{"type":"node","id":5694343044,"lat":38.0006835,"lon":23.7343836,"tags":{"addr:city":"\u0391\u03b8\u03ae\u03bd\u03b1","addr:housenumber":"9","addr:street":"\u03a6\u03c9\u03ba\u03af\u03c9\u03bd\u03bf\u03c2 \u039d\u03ad\u03b3\u03c1\u03b7","name":"\u03a4\u03ad\u03bb\u03b7\u03c2 \u039a\u03b9\u03ba\u03ad\u03c1\u03b7\u03c2","shop":"hairdresser"}},{"type":"node","id":5882993313,"lat":38.0008162,"lon":23.7344994,"tags":{"addr:city":"\u0391\u03b8\u03ae\u03bd\u03b1","addr:housenumber":"2","addr:street":"\u0391\u03b3\u03b1\u03b8\u03bf\u03c5\u03c0\u03cc\u03bb\u03b5\u03c9\u03c2","name":"Vape Cargo","shop":"e-cigarette"}},{"type":"node","id":6283317034,"lat":38.0004433,"lon":23.734368,"tags":{"addr:city":"\u0391\u03b8\u03ae\u03bd\u03b1","addr:housenumber":"8","addr:street":"\u03a6\u03c9\u03ba\u03af\u03c9\u03bd\u03bf\u03c2 \u039d\u03ad\u03b3\u03c1\u03b7","clothes":"underwear","shop":"clothes"}},{"type":"node","id":6665610486,"lat":38.0006038,"lon":23.7342385,"tags":{"addr:city":"\u0391\u03b8\u03ae\u03bd\u03b1","addr:housenumber":"7","addr:street":"\u03a6\u03c9\u03ba\u03af\u03c9\u03bd\u03bf\u03c2 \u039d\u03ad\u03b3\u03c1\u03b7","clothes":"men","name":"Works","shop":"clothes"}},{"type":"node","id":6898118921,"lat":38.0008345,"lon":23.7346342,"tags":{"addr:city":"\u0391\u03b8\u03ae\u03bd\u03b1","addr:housenumber":"11","addr:street":"\u03a6\u03c9\u03ba\u03af\u03c9\u03bd\u03bf\u03c2 \u039d\u03ad\u03b3\u03c1\u03b7","amenity":"restaurant","cuisine":"greek","name":"\u03a3\u03c0\u03b9\u03c4\u03b9\u03ba\u03ae \u03ba\u03bf\u03c5\u03b6\u03af\u03bd\u03b1","phone":"2108670486","website":"https:\/\/www.spitikikouzina.gr\/"}},{"type":"node","id":7119294247,"lat":38.000504,"lon":23.7344746,"tags":{"addr:city":"\u0391\u03b8\u03ae\u03bd\u03b1","addr:housenumber":"8","addr:street":"\u03a6\u03c9\u03ba\u03af\u03c9\u03bd\u03bf\u03c2 \u039d\u03ad\u03b3\u03c1\u03b7","clothes":"women","name":"Sondi","shop":"clothes"}},{"type":"node","id":7205595654,"lat":38.0003478,"lon":23.7341761,"tags":{"addr:city":"\u0391\u03b8\u03ae\u03bd\u03b1","addr:housenumber":"4","addr:street":"\u03a6\u03c9\u03ba\u03af\u03c9\u03bd\u03bf\u03c2 \u039d\u03ad\u03b3\u03c1\u03b7"}},{"type":"node","id":7205595655,"lat":38.0004151,"lon":23.734283,"tags":{"addr:housenumber":"8","addr:street":"\u03a6\u03c9\u03ba\u03af\u03c9\u03bd\u03bf\u03c2 \u039d\u03ad\u03b3\u03c1\u03b7"}},{"type":"node","id":7205595656,"lat":38.000563,"lon":23.7345526,"tags":{"addr:city":"\u0391\u03b8\u03ae\u03bd\u03b1","addr:housenumber":"12","addr:street":"\u03a6\u03c9\u03ba\u03af\u03c9\u03bd\u03bf\u03c2 \u039d\u03ad\u03b3\u03c1\u03b7"}},{"type":"node","id":7205595657,"lat":38.000593,"lon":23.7342303,"tags":{"addr:city":"\u0391\u03b8\u03ae\u03bd\u03b1","addr:housenumber":"7","addr:street":"\u03a6\u03c9\u03ba\u03af\u03c9\u03bd\u03bf\u03c2 \u039d\u03ad\u03b3\u03c1\u03b7"}},{"type":"node","id":7205595658,"lat":38.0005245,"lon":23.7341228,"tags":{"addr:city":"\u0391\u03b8\u03ae\u03bd\u03b1","addr:housenumber":"5","addr:street":"\u03a6\u03c9\u03ba\u03af\u03c9\u03bd\u03bf\u03c2 \u039d\u03ad\u03b3\u03c1\u03b7"}},{"type":"node","id":7205595659,"lat":38.0004104,"lon":23.7339438,"tags":{"addr:city":"\u0391\u03b8\u03ae\u03bd\u03b1","addr:housenumber":"3","addr:street":"\u03a6\u03c9\u03ba\u03af\u03c9\u03bd\u03bf\u03c2 \u039d\u03ad\u03b3\u03c1\u03b7"}},{"type":"node","id":7279876809,"lat":38.0008462,"lon":23.7343157,"tags":{"addr:city":"\u0391\u03b8\u03ae\u03bd\u03b1","addr:housenumber":"4","addr:street":"\u0391\u03b3\u03b1\u03b8\u03bf\u03c5\u03c0\u03cc\u03bb\u03b5\u03c9\u03c2","name":"\u039b\u03bf\u03b3\u03b9\u03c3\u03c4\u03b9\u03ba\u03cc-\u03c6\u03bf\u03c1\u03bf\u03c4\u03b5\u03c7\u03bd\u03b9\u03ba\u03cc \u03b3\u03c1\u03b1\u03c6\u03b5\u03af\u03bf","office":"accountant"}},{"type":"node","id":7986293391,"lat":38.0008533,"lon":23.7344266,"tags":{"addr:city":"\u0391\u03b8\u03ae\u03bd\u03b1","addr:housenumber":"4","addr:street":"\u0391\u03b3\u03b1\u03b8\u03bf\u03c5\u03c0\u03cc\u03bb\u03b5\u03c9\u03c2","shop":"convenience"}},{"type":"node","id":8096593806,"lat":38.0008978,"lon":23.7342485,"tags":{"access":"yes","amenity":"parking","fee":"yes","parking":"surface","surface":"asphalt"}},{"type":"node","id":10118326205,"lat":38.0004492,"lon":23.7346637,"tags":{"name":"Literature house","shop":"books"}},{"type":"node","id":10118352739,"lat":38.0003504,"lon":23.7346553,"tags":{"name":"Bee Hive","shop":"second_hand"}},{"type":"node","id":10118363021,"lat":38.0005506,"lon":23.7346798,"tags":{"amenity":"cafe","name":"Dog Ville"}}]}