{"version":0.6,"generator":"Overpass API 0.7.61.5 4133829e","osm3s":{"timestamp_osm_base":"2023-08-16T11:22:04Z","copyright":"The data included in this document is from www.openstreetmap.org. The data is made available under ODbL."},"elements":[{"type":"node","id":213029601,"lat":38.0006394,"lon":23.7347934,"tags":{"highway":"traffic_signals"}},{"type":"node","id":2800846110,"lat":38.0005497,"lon":23.7348816,"tags":{"addr:city":"\u0391\u03b8\u03ae\u03bd\u03b1","addr:country":"GR","addr:housenumber":"64","addr:postcode":"11257","addr:street":"\u0399\u03c9\u03ac\u03bd\u03bd\u03bf\u03c5 \u0394\u03c1\u03bf\u03c3\u03bf\u03c0\u03bf\u03cd\u03bb\u03bf\u03c5","alt_name":"\u0392\u03b5\u03bd\u03ad\u03c4\u03b7\u03c2","brand":"\u0392\u03b5\u03bd\u03ad\u03c4\u03b7","brand:wikidata":"Q106776278","int_name":"Veneti","name":"\u0392\u03b5\u03bd\u03ad\u03c4\u03b7","name:en":"Veneti","shop":"bakery"}},{"type":"node","id":4465549384,"lat":38.0009213,"lon":23.7347578,"tags":{"addr:city":"\u0391\u03b8\u03ae\u03bd\u03b1","addr:street":"\u03a6\u03c9\u03ba\u03af\u03c9\u03bd\u03bf\u03c2 \u039d\u03ad\u03b3\u03c1\u03b7","name":"Kiosky's","shop":"convenience"}},{"type":"node","id":5581318477,"lat":38.0007699,"lon":23.7350387,"tags":{"amenity":"fountain"}},{"type":"node","id":6343833640,"lat":38.0007712,"lon":23.7348537,"tags":{"amenity":"recycling","recycling:clothes":"yes","recycling:shoes":"yes","recycling_type":"container"}},{"type":"node","id":6898055911,"lat":38.0008937,"lon":23.7347307,"tags":{"addr:city":"\u0391\u03b8\u03ae\u03bd\u03b1","addr:housenumber":"13","addr:street":"\u03a6\u03c9\u03ba\u03af\u03c9\u03bd\u03bf\u03c2 \u039d\u03ad\u03b3\u03c1\u03b7","shop":"tattoo"}},{"type":"node","id":7132128316,"lat":38.000696,"lon":23.7347264,"tags":{"amenity":"recycling","colour":"blue","material":"plastic","recycling:glass_bottles":"yes","recycling_type":"container"}},{"type":"node","id":8718558487,"lat":38.0006747,"lon":23.7355311,"tags":{"amenity":"restaurant","diet:vegan":"yes","name":"Wok on fire","phone":"+302111820009"}},{"type":"node","id":9951158534,"lat":38.000462,"lon":23.7353789,"tags":{"natural":"tree"}},{"type":"node","id":10276895411,"lat":38.0005708,"lon":23.7350027,"tags":{"addr:city":"\u0391\u03b8\u03ae\u03bd\u03b1","addr:housenumber":"14","addr:street":"\u03a6\u03c9\u03ba\u03af\u03c9\u03bd\u03bf\u03c2 \u039d\u03ad\u03b3\u03c1\u03b7"}}]}