{"version":0.6,"generator":"Overpass API 0.7.61.5 4133829e","osm3s":{"timestamp_osm_base":"2023-08-16T11:32:30Z","copyright":"The data included in this document is from www.openstreetmap.org. The data is made available under ODbL."},"elements":[{"type":"node","id":2848911348,"lat":38.0037308,"lon":23.7254189,"tags":{"addr:city":"\u0391\u03b8\u03ae\u03bd\u03b1","addr:country":"GR","addr:housenumber":"56","addr:postcode":"10446","addr:street":"\u0399\u03c9\u03bd\u03af\u03b1\u03c2","addr:street:prefix":"\u039b\u03b5\u03c9\u03c6\u03cc\u03c1\u03bf\u03c2"}},{"type":"node","id":2848911350,"lat":38.0039604,"lon":23.7255975,"tags":{"addr:city":"\u0391\u03b8\u03ae\u03bd\u03b1","addr:country":"GR","addr:housenumber":"58","addr:postcode":"10446","addr:street":"\u0399\u03c9\u03bd\u03af\u03b1\u03c2","addr:street:prefix":"\u039b\u03b5\u03c9\u03c6\u03cc\u03c1\u03bf\u03c2"}},{"type":"node","id":2848911351,"lat":38.0041245,"lon":23.7253848,"tags":{"addr:city":"\u0391\u03b8\u03ae\u03bd\u03b1","addr:country":"GR","addr:housenumber":"59","addr:postcode":"10445","addr:street":"\u0399\u03c9\u03bd\u03af\u03b1\u03c2","addr:street:prefix":"\u039b\u03b5\u03c9\u03c6\u03cc\u03c1\u03bf\u03c2"}},{"type":"node","id":2848911355,"lat":38.0041103,"lon":23.7257332,"tags":{"addr:city":"\u0391\u03b8\u03ae\u03bd\u03b1","addr:country":"GR","addr:housenumber":"60","addr:postcode":"10446","addr:street":"\u0399\u03c9\u03bd\u03af\u03b1\u03c2","addr:street:prefix":"\u039b\u03b5\u03c9\u03c6\u03cc\u03c1\u03bf\u03c2"}},{"type":"node","id":2848911356,"lat":38.0043234,"lon":23.7255471,"tags":{"addr:city":"\u0391\u03b8\u03ae\u03bd\u03b1","addr:country":"GR","addr:housenumber":"61","addr:postcode":"10445","addr:street":"\u0399\u03c9\u03bd\u03af\u03b1\u03c2","addr:street:prefix":"\u039b\u03b5\u03c9\u03c6\u03cc\u03c1\u03bf\u03c2"}},{"type":"node","id":2848911357,"lat":38.0043304,"lon":23.7259208,"tags":{"addr:city":"\u0391\u03b8\u03ae\u03bd\u03b1","addr:country":"GR","addr:housenumber":"62","addr:postcode":"10446","addr:street":"\u0399\u03c9\u03bd\u03af\u03b1\u03c2","addr:street:prefix":"\u039b\u03b5\u03c9\u03c6\u03cc\u03c1\u03bf\u03c2"}},{"type":"node","id":2848911359,"lat":38.0043734,"lon":23.7259553,"tags":{"addr:city":"\u0391\u03b8\u03ae\u03bd\u03b1","addr:country":"GR","addr:housenumber":"64","addr:postcode":"10446","addr:street":"\u0399\u03c9\u03bd\u03af\u03b1\u03c2","addr:street:prefix":"\u039b\u03b5\u03c9\u03c6\u03cc\u03c1\u03bf\u03c2"}},{"type":"node","id":7309232767,"lat":38.0042702,"lon":23.7259697,"tags":{"addr:city":"\u0391\u03b8\u03ae\u03bd\u03b1","addr:country":"GR","addr:housenumber":"52","addr:postcode":"10446","addr:street":"\u039d\u03b9\u03cc\u03b2\u03b7\u03c2"}},{"type":"node","id":7749805812,"lat":38.0042396,"lon":23.7258345,"tags":{"highway":"stop"}}]}