{"version":0.6,"generator":"Overpass API 0.7.61.5 4133829e","osm3s":{"timestamp_osm_base":"2023-08-16T11:25:12Z","copyright":"The data included in this document is from www.openstreetmap.org. The data is made available under ODbL."},"elements":[{"type":"node","id":2638326737,"lat":38.0016882,"lon":23.7232746,"tags":{"addr:city":"\u0391\u03b8\u03ae\u03bd\u03b1","addr:country":"GR","addr:housenumber":"19","addr:postcode":"10445","addr:street":"\u0399\u03c9\u03bd\u03af\u03b1\u03c2","addr:street:prefix":"\u039b\u03b5\u03c9\u03c6\u03cc\u03c1\u03bf\u03c2"}},{"type":"node","id":2638326788,"lat":38.0017822,"lon":23.7233335,"tags":{"addr:city":"\u0391\u03b8\u03ae\u03bd\u03b1","addr:country":"GR","addr:housenumber":"21","addr:postcode":"10445","addr:street":"\u0399\u03c9\u03bd\u03af\u03b1\u03c2","addr:street:prefix":"\u039b\u03b5\u03c9\u03c6\u03cc\u03c1\u03bf\u03c2"}},{"type":"node","id":2638326798,"lat":38.0018992,"lon":23.7234189,"tags":{"addr:city":"\u0391\u03b8\u03ae\u03bd\u03b1","addr:country":"GR","addr:housenumber":"23","addr:postcode":"10445","addr:street":"\u0399\u03c9\u03bd\u03af\u03b1\u03c2","addr:street:prefix":"\u039b\u03b5\u03c9\u03c6\u03cc\u03c1\u03bf\u03c2"}},{"type":"node","id":2638326812,"lat":38.0019996,"lon":23.7234969,"tags":{"addr:city":"\u0391\u03b8\u03ae\u03bd\u03b1","addr:country":"GR","addr:housenumber":"25","addr:postcode":"10445","addr:street":"\u0399\u03c9\u03bd\u03af\u03b1\u03c2","addr:street:prefix":"\u039b\u03b5\u03c9\u03c6\u03cc\u03c1\u03bf\u03c2"}},{"type":"node","id":2638327000,"lat":38.0018014,"lon":23.7233426,"tags":{"addr:street":"\u0399\u03c9\u03bd\u03af\u03b1\u03c2","amenity":"fuel","brand":"Aegean","brand:wikidata":"Q28146598","brand:wikipedia":"el:Aegean Oil","name":"Aegean"}},{"type":"node","id":2835656436,"lat":38.0020837,"lon":23.7227923,"tags":{"addr:city":"\u0391\u03b8\u03ae\u03bd\u03b1","addr:country":"GR","addr:housenumber":"10","addr:postcode":"10445","addr:street":"\u03a0\u03b1\u03c1\u03b1\u03c3\u03ba\u03b5\u03c5\u03bf\u03c0\u03bf\u03cd\u03bb\u03bf\u03c5"}},{"type":"node","id":2835656479,"lat":38.0021175,"lon":23.7227984,"tags":{"addr:city":"\u0391\u03b8\u03ae\u03bd\u03b1","addr:country":"GR","addr:housenumber":"12","addr:postcode":"10445","addr:street":"\u03a0\u03b1\u03c1\u03b1\u03c3\u03ba\u03b5\u03c5\u03bf\u03c0\u03bf\u03cd\u03bb\u03bf\u03c5"}},{"type":"node","id":2835656922,"lat":38.0022703,"lon":23.7228264,"tags":{"addr:city":"\u0391\u03b8\u03ae\u03bd\u03b1","addr:country":"GR","addr:housenumber":"14","addr:postcode":"10445","addr:street":"\u03a0\u03b1\u03c1\u03b1\u03c3\u03ba\u03b5\u03c5\u03bf\u03c0\u03bf\u03cd\u03bb\u03bf\u03c5"}},{"type":"node","id":2835656946,"lat":38.0022933,"lon":23.7228306,"tags":{"addr:city":"\u0391\u03b8\u03ae\u03bd\u03b1","addr:country":"GR","addr:housenumber":"16","addr:postcode":"10445","addr:street":"\u03a0\u03b1\u03c1\u03b1\u03c3\u03ba\u03b5\u03c5\u03bf\u03c0\u03bf\u03cd\u03bb\u03bf\u03c5"}},{"type":"node","id":2835657065,"lat":38.001847,"lon":23.722749,"tags":{"addr:city":"\u0391\u03b8\u03ae\u03bd\u03b1","addr:country":"GR","addr:housenumber":"6","addr:postcode":"10445","addr:street":"\u03a0\u03b1\u03c1\u03b1\u03c3\u03ba\u03b5\u03c5\u03bf\u03c0\u03bf\u03cd\u03bb\u03bf\u03c5"}},{"type":"node","id":2835657310,"lat":38.0019509,"lon":23.722768,"tags":{"addr:city":"\u0391\u03b8\u03ae\u03bd\u03b1","addr:country":"GR","addr:housenumber":"8","addr:postcode":"10445","addr:street":"\u03a0\u03b1\u03c1\u03b1\u03c3\u03ba\u03b5\u03c5\u03bf\u03c0\u03bf\u03cd\u03bb\u03bf\u03c5"}},{"type":"node","id":2848910589,"lat":38.0020929,"lon":23.7235776,"tags":{"addr:city":"\u0391\u03b8\u03ae\u03bd\u03b1","addr:country":"GR","addr:housenumber":"27","addr:postcode":"10445","addr:street":"\u0399\u03c9\u03bd\u03af\u03b1\u03c2","addr:street:prefix":"\u039b\u03b5\u03c9\u03c6\u03cc\u03c1\u03bf\u03c2"}}]}