{"version":0.6,"generator":"Overpass API 0.7.61.5 4133829e","osm3s":{"timestamp_osm_base":"2023-08-16T11:27:15Z","copyright":"The data included in this document is from www.openstreetmap.org. The data is made available under ODbL."},"elements":[{"type":"node","id":5474284670,"lat":38.0030646,"lon":23.7354838,"tags":{"addr:city":"\u0391\u03b8\u03ae\u03bd\u03b1","addr:housenumber":"90","addr:street":"\u0399\u03c9\u03ac\u03bd\u03bd\u03bf\u03c5 \u0394\u03c1\u03bf\u03c3\u03bf\u03c0\u03bf\u03cd\u03bb\u03bf\u03c5"}},{"type":"node","id":6101000300,"lat":38.003118,"lon":23.7351609,"tags":{"addr:city":"\u0391\u03b8\u03ae\u03bd\u03b1","addr:housenumber":"36","addr:street":"\u039a\u03b1\u03c1\u03b1\u03b3\u03b9\u03ac\u03bd\u03bd\u03b7 \u039b\u03ad\u03bb\u03b1\u03c2"}},{"type":"node","id":6299447861,"lat":38.0031068,"lon":23.7352643,"tags":{"addr:city":"\u0391\u03b8\u03ae\u03bd\u03b1","addr:housenumber":"101","addr:street":"\u0399\u03c9\u03ac\u03bd\u03bd\u03bf\u03c5 \u0394\u03c1\u03bf\u03c3\u03bf\u03c0\u03bf\u03cd\u03bb\u03bf\u03c5"}},{"type":"node","id":6417824327,"lat":38.0032216,"lon":23.7355458,"tags":{"addr:city":"\u0391\u03b8\u03ae\u03bd\u03b1","addr:housenumber":"39","addr:street":"\u039a\u03b1\u03c1\u03b1\u03b3\u03b9\u03ac\u03bd\u03bd\u03b7 \u039b\u03ad\u03bb\u03b1\u03c2"}},{"type":"node","id":7197138119,"lat":38.0032464,"lon":23.735337,"tags":{"addr:city":"\u0391\u03b8\u03ae\u03bd\u03b1","addr:housenumber":"37","addr:street":"\u039a\u03b1\u03c1\u03b1\u03b3\u03b9\u03ac\u03bd\u03bd\u03b7 \u039b\u03ad\u03bb\u03b1\u03c2"}},{"type":"node","id":7205660531,"lat":38.0031542,"lon":23.7349758,"tags":{"addr:city":"\u0391\u03b8\u03ae\u03bd\u03b1","addr:housenumber":"34","addr:postcode":"11257","addr:street":"\u039a\u03b1\u03c1\u03b1\u03b3\u03b9\u03ac\u03bd\u03bd\u03b7 \u039b\u03ad\u03bb\u03b1\u03c2"}},{"type":"node","id":7205672989,"lat":38.0033558,"lon":23.7347159,"tags":{"addr:city":"\u0391\u03b8\u03ae\u03bd\u03b1","addr:housenumber":"31","addr:street":"\u039a\u03b1\u03c1\u03b1\u03b3\u03b9\u03ac\u03bd\u03bd\u03b7 \u039b\u03ad\u03bb\u03b1\u03c2"}},{"type":"node","id":7205672990,"lat":38.0033372,"lon":23.7348206,"tags":{"addr:city":"\u0391\u03b8\u03ae\u03bd\u03b1","addr:housenumber":"33","addr:postcode":"11257","addr:street":"\u039a\u03b1\u03c1\u03b1\u03b3\u03b9\u03ac\u03bd\u03bd\u03b7 \u039b\u03ad\u03bb\u03b1\u03c2"}},{"type":"node","id":8062946271,"lat":38.0031336,"lon":23.7354175,"tags":{"highway":"traffic_signals","traffic_signals":"signal"}},{"type":"node","id":8062946272,"lat":38.003184,"lon":23.7353482,"tags":{"highway":"traffic_signals","traffic_signals":"signal"}},{"type":"node","id":8614169336,"lat":38.0031861,"lon":23.7348456,"tags":{"addr:city":"\u0391\u03b8\u03ae\u03bd\u03b1","addr:housenumber":"32","addr:street":"\u039a\u03b1\u03c1\u03b1\u03b3\u03b9\u03ac\u03bd\u03bd\u03b7 \u039b\u03ad\u03bb\u03b1\u03c2","shop":"convenience"}},{"type":"node","id":9775555816,"lat":38.0032653,"lon":23.7355314,"tags":{"addr:city":"\u0391\u03b8\u03ae\u03bd\u03b1","addr:housenumber":"92","addr:street":"\u0399. \u0394\u03c1\u03bf\u03c3\u03bf\u03c0\u03bf\u03cd\u03bb\u03bf\u03c5"}},{"type":"node","id":10889995324,"lat":38.0030268,"lon":23.7354474,"tags":{"addr:city":"\u0391\u03b8\u03ae\u03bd\u03b1","addr:housenumber":"90","addr:street":"\u0399\u03c9\u03ac\u03bd\u03bd\u03bf\u03c5 \u0394\u03c1\u03bf\u03c3\u03bf\u03c0\u03bf\u03cd\u03bb\u03bf\u03c5","name":"Qureshi market","shop":"convenience"}},{"type":"node","id":10914234648,"lat":38.0030517,"lon":23.7353217,"tags":{"addr:city":"\u0391\u03b8\u03ae\u03bd\u03b1","addr:housenumber":"101","addr:street":"\u0399\u03c9\u03ac\u03bd\u03bd\u03bf\u03c5 \u0394\u03c1\u03bf\u03c3\u03bf\u03c0\u03bf\u03cd\u03bb\u03bf\u03c5","shop":"mobile_phone"}}]}