{"version":0.6,"generator":"Overpass API 0.7.61.5 4133829e","osm3s":{"timestamp_osm_base":"2023-08-16T11:32:30Z","copyright":"The data included in this document is from www.openstreetmap.org. The data is made available under ODbL."},"elements":[{"type":"node","id":1773646186,"lat":38.0039341,"lon":23.7270313,"tags":{"addr:city":"\u0391\u03b8\u03ae\u03bd\u03b1","addr:country":"GR","addr:housenumber":"206","addr:postcode":"10446","addr:street":"\u039c\u03b9\u03c7\u03b1\u03ae\u03bb \u0392\u03cc\u03b4\u03b1"}},{"type":"node","id":1773646189,"lat":38.0042555,"lon":23.7271236,"tags":{"addr:city":"\u0391\u03b8\u03ae\u03bd\u03b1","addr:country":"GR","addr:housenumber":"208","addr:postcode":"10446","addr:street":"\u039c\u03b9\u03c7\u03b1\u03ae\u03bb \u0392\u03cc\u03b4\u03b1"}},{"type":"node","id":1773646190,"lat":38.0041236,"lon":23.7270818,"tags":{"addr:city":"\u0391\u03b8\u03ae\u03bd\u03b1","addr:country":"GR","addr:housenumber":"208\u0391","addr:postcode":"10446","addr:street":"\u039c\u03b9\u03c7\u03b1\u03ae\u03bb \u0392\u03cc\u03b4\u03b1"}},{"type":"node","id":1773646194,"lat":38.0043681,"lon":23.727164,"tags":{"addr:city":"\u0391\u03b8\u03ae\u03bd\u03b1","addr:country":"GR","addr:housenumber":"210","addr:postcode":"10446","addr:street":"\u039c\u03b9\u03c7\u03b1\u03ae\u03bb \u0392\u03cc\u03b4\u03b1"}},{"type":"node","id":7749805811,"lat":38.0040301,"lon":23.7270475,"tags":{"highway":"stop"}}]}