{"version":0.6,"generator":"Overpass API 0.7.61.5 4133829e","osm3s":{"timestamp_osm_base":"2023-08-16T11:31:29Z","copyright":"The data included in this document is from www.openstreetmap.org. The data is made available under ODbL."},"elements":[{"type":"node","id":1770458794,"lat":38.0037913,"lon":23.7220869,"tags":{"addr:city":"\u0391\u03b8\u03ae\u03bd\u03b1","addr:country":"GR","addr:housenumber":"170","addr:postcode":"10445","addr:street":"\u039b\u03b9\u03bf\u03c3\u03af\u03c9\u03bd"}},{"type":"node","id":1770458795,"lat":38.0041267,"lon":23.7221514,"tags":{"addr:city":"\u0391\u03b8\u03ae\u03bd\u03b1","addr:country":"GR","addr:housenumber":"178","addr:postcode":"10445","addr:street":"\u039b\u03b9\u03bf\u03c3\u03af\u03c9\u03bd"}},{"type":"node","id":1770458796,"lat":38.0043558,"lon":23.722163,"tags":{"addr:city":"\u0391\u03b8\u03ae\u03bd\u03b1","addr:country":"GR","addr:housenumber":"180","addr:postcode":"10445","addr:street":"\u039b\u03b9\u03bf\u03c3\u03af\u03c9\u03bd"}},{"type":"node","id":1770458835,"lat":38.0041286,"lon":23.7218851,"tags":{"addr:city":"\u0391\u03b8\u03ae\u03bd\u03b1","addr:country":"GR","addr:housenumber":"211","addr:postcode":"10445","addr:street":"\u039b\u03b9\u03bf\u03c3\u03af\u03c9\u03bd"}},{"type":"node","id":6255655634,"lat":38.0042597,"lon":23.7223505,"tags":{"addr:city":"\u0391\u03b8\u03ae\u03bd\u03b1","addr:housenumber":"92\u0391","addr:street":"\u03a1\u03cc\u03b4\u03bf\u03c5"}},{"type":"node","id":6255658602,"lat":38.0041308,"lon":23.7222325,"tags":{"addr:city":"\u0391\u03b8\u03ae\u03bd\u03b1","addr:housenumber":"93","addr:street":"\u03a1\u03cc\u03b4\u03bf\u03c5"}},{"type":"node","id":6402054946,"lat":38.0041614,"lon":23.7219016,"tags":{"shop":"tyres"}},{"type":"node","id":6528192187,"lat":38.004032,"lon":23.7221623,"tags":{"addr:city":"\u0391\u03b8\u03ae\u03bd\u03b1","addr:housenumber":"176","addr:street":"\u039b\u03b9\u03bf\u03c3\u03af\u03c9\u03bd","amenity":"car_wash"}},{"type":"node","id":7343273952,"lat":38.0042092,"lon":23.7221217,"tags":{"highway":"traffic_signals","traffic_signals":"signal"}},{"type":"node","id":7343273953,"lat":38.0041701,"lon":23.7219971,"tags":{"highway":"traffic_signals","traffic_signals":"signal","traffic_signals:direction":"backward"}},{"type":"node","id":7343273954,"lat":38.0042742,"lon":23.7220168,"tags":{"highway":"traffic_signals","traffic_signals":"signal","traffic_signals:direction":"forward"}}]}