{"version":0.6,"generator":"Overpass API 0.7.62.5 1bd436f1","osm3s":{"timestamp_osm_base":"2025-03-12T13:50:43Z","copyright":"The data included in this document is from www.openstreetmap.org. The data is made available under ODbL."},"elements":[{"type":"node","id":367946843,"lat":52.2256802,"lon":21.0121958,"tags":{"addr:housenumber":"41","addr:street":"Ho\u017ca","amenity":"pharmacy","brand":"Dbam o Zdrowie","brand:wikidata":"Q62563833","check_date":"2024-06-05","dispensing":"yes","name":"Dbam O Zdrowie","opening_hours":"Mo-Fr 08:00-20:00; Sa 08:00-15:00","ref:csioz":"1082906","website":"https:\/\/www.doz.pl\/","wheelchair":"limited"}},{"type":"node","id":2119982158,"lat":52.2258024,"lon":21.0127072,"tags":{"addr:city":"Warszawa","addr:housenumber":"37","addr:street":"Ho\u017ca","check_date":"2024-06-05","name":"Bocian","shop":"convenience","wheelchair":"limited"}},{"type":"node","id":9502756634,"lat":52.22584,"lon":21.0125929,"tags":{"amenity":"vending_machine","check_date":"2022-09-16","operator":"ZDM Warszawa","ref":"G040703","vending":"parking_tickets"}},{"type":"node","id":10004769304,"lat":52.2259447,"lon":21.0121926,"tags":{"addr:housenumber":"54","addr:street":"Ho\u017ca","check_date":"2024-06-05","name":"E-Tabak","opening_hours":"Mo-Th 10:00-22:00; Fr 12:00-24:00; Sa 12:00-22:00; Su 12:00-20:00","shop":"e-cigarette","wheelchair":"limited"}},{"type":"node","id":10004769305,"lat":52.2259684,"lon":21.0123006,"tags":{"addr:housenumber":"54","addr:street":"Ho\u017ca","check_date":"2024-06-05","name":"Andromeda","opening_hours":"Mo-Fr 09:00-19:00; Sa 10:00-16:00","shop":"nutrition_supplements","wheelchair":"limited"}},{"type":"node","id":10004769306,"lat":52.2259879,"lon":21.0123975,"tags":{"addr:housenumber":"54","addr:street":"Ho\u017ca","check_date":"2024-06-05","cuisine":"pasta","disused:amenity":"fast_food","name":"Tagliatelle","outdoor_seating":"yes","wheelchair":"limited"}},{"type":"node","id":10004769307,"lat":52.22601,"lon":21.0124975,"tags":{"addr:housenumber":"54","addr:street":"Ho\u017ca","check_date":"2024-06-05","name":"Sheik Barber","shop":"hairdresser","wheelchair":"limited"}},{"type":"node","id":10029846303,"lat":52.2259384,"lon":21.013201,"tags":{"historic":"memorial","memorial":"plaque","name":"UNRRA"}},{"type":"node","id":10029846310,"lat":52.2258706,"lon":21.0130298,"tags":{"addr:housenumber":"35","addr:street":"Ho\u017ca","check_date":"2024-06-05","name":"I. Przybylska-Sulisz","opening_hours":"Mo-Fr 10:00-18:00","shop":"optician","wheelchair":"no"}},{"type":"node","id":10029846313,"lat":52.2258519,"lon":21.0129349,"tags":{"addr:housenumber":"37","addr:street":"Ho\u017ca","check_date":"2024-06-05","name":"Owoce & Warzywa","opening_hours":"Mo-Fr 09:00-18:00; Sa 09:00-14:00","shop":"greengrocer","wheelchair":"no"}},{"type":"node","id":10029846315,"lat":52.2258343,"lon":21.0128586,"tags":{"addr:housenumber":"37","addr:street":"Ho\u017ca","check_date":"2024-06-05","name":"Szyneczka","opening_hours":"Mo-Fr 08:30-18:00; Sep-May Sa 08:30-13:00","shop":"butcher","wheelchair":"no"}},{"type":"node","id":10029849922,"lat":52.2258407,"lon":21.012748,"tags":{"historic":"memorial","memorial":"plaque","name":"Kazimierz Wierzy\u0144ski"}},{"type":"node","id":10029849936,"lat":52.225771,"lon":21.0125579,"tags":{"addr:housenumber":"39","addr:street":"Ho\u017ca","check_date":"2024-06-05","craft":"photographer","name":"LP Foto","opening_hours":"Mo-Fr 10:30-19:00","wheelchair":"no"}},{"type":"node","id":10029849937,"lat":52.2257322,"lon":21.0123804,"tags":{"addr:housenumber":"39","addr:street":"Ho\u017ca","check_date":"2024-06-05","name":"Glorioza","shop":"florist","wheelchair":"no"}},{"type":"node","id":10029849938,"lat":52.2257139,"lon":21.0122952,"tags":{"addr:housenumber":"39","addr:street":"Ho\u017ca","check_date":"2024-06-05","noname":"yes","opening_hours":"Mo-Fr 10:00-19:00; Sa 10:00-15:00","shop":"pet","wheelchair":"no"}},{"type":"node","id":11835830373,"lat":52.2257859,"lon":21.0129134,"tags":{"addr:city":"Warszawa","addr:housenumber":"37","addr:postcode":"00-681","addr:street":"Ho\u017ca","amenity":"love_hotel","check_date":"2024-06-05","contact:facebook":"https:\/\/www.facebook.com\/Nolimitshouse.eu","contact:instagram":"https:\/\/www.instagram.com\/nolimitshouse.eu\/","email":"info@nolimitshouse.eu","internet_access":"wlan","internet_access:fee":"customers","min_age":"18","name":"No Limits House","operator":"MA\u0141GORZATA KARPI\u0143SKA","phone":"+48 519 083 899","ref:vatin":"PL5213174844","rooms":"1","start_date":"2024-03-15","website":"https:\/\/nolimitshouse.eu\/"}},{"type":"node","id":11958852129,"lat":52.2258862,"lon":21.0130999,"tags":{"addr:housenumber":"35","addr:street":"Ho\u017ca","check_date":"2024-06-05","clothes":"women","name":"Tabanna","shop":"clothes","wheelchair":"limited"}},{"type":"node","id":11958852135,"lat":52.2257459,"lon":21.0124506,"tags":{"addr:housenumber":"39","addr:street":"Ho\u017ca","beauty":"nails","check_date":"2024-06-05","name":"Sage","opening_hours":"Mo-Fr 09:00-21:00; Sa 10:00-19:00","shop":"beauty","wheelchair":"no"}}]}