{"version":0.6,"generator":"Overpass API 0.7.62.5 1bd436f1","osm3s":{"timestamp_osm_base":"2025-03-12T13:19:01Z","copyright":"The data included in this document is from www.openstreetmap.org. The data is made available under ODbL."},"elements":[{"type":"node","id":2025610913,"lat":52.2268283,"lon":21.0097992,"tags":{"addr:city":"Warszawa","addr:city:simc":"0918123","addr:housenumber":"56","addr:postcode":"00-684","addr:street":"Wsp\u00f3lna","source:addr":"mapa.um.warszawa.pl"}},{"type":"node","id":2642899324,"lat":52.2268092,"lon":21.0098003,"tags":{"entrance":"yes"}},{"type":"node","id":3644212627,"lat":52.2268329,"lon":21.0092584,"tags":{"barrier":"lift_gate"}},{"type":"node","id":9140805125,"lat":52.2267283,"lon":21.0094034,"tags":{"access":"private","amenity":"parking_entrance"}},{"type":"node","id":9502756626,"lat":52.2270553,"lon":21.0090245,"tags":{"amenity":"vending_machine","check_date":"2023-04-20","operator":"ZDM Warszawa","ref":"G040216","vending":"parking_tickets"}},{"type":"node","id":9502957696,"lat":52.2270872,"lon":21.0098494,"tags":{"amenity":"vending_machine","check_date":"2023-04-20","operator":"ZDM Warszawa","ref":"G040219","vending":"parking_tickets"}},{"type":"node","id":10827506989,"lat":52.2268645,"lon":21.0093859,"tags":{"amenity":"bicycle_parking","bicycle_parking":"stands","capacity":"4","covered":"no"}},{"type":"node","id":10827506991,"lat":52.2270093,"lon":21.0092075,"tags":{"amenity":"bicycle_parking","bicycle_parking":"stands","capacity":"4","covered":"no"}},{"type":"node","id":10827506993,"lat":52.2269532,"lon":21.0092644,"tags":{"amenity":"bicycle_parking","bicycle_parking":"stands","capacity":"2","covered":"no"}},{"type":"node","id":10827507000,"lat":52.2267255,"lon":21.0094133,"tags":{"amenity":"bicycle_parking","bicycle_parking":"wall_loops","capacity":"10","covered":"no"}},{"type":"node","id":10827507004,"lat":52.2271535,"lon":21.0098911,"tags":{"addr:housenumber":"4","addr:street":"\u015awi\u0119tej Barbary","amenity":"doctors","check_date":"2023-04-20","healthcare":"doctor","healthcare:speciality":"dermatology","name":"Projekt Sk\u00f3ra","wheelchair":"limited"}},{"type":"node","id":11451716420,"lat":52.2269907,"lon":21.0093183,"tags":{"information":"board","name":"\u015awi\u0119ta Barbara","tourism":"information"}}]}