{"version":0.6,"generator":"Overpass API 0.7.62.5 1bd436f1","osm3s":{"timestamp_osm_base":"2025-03-12T13:08:56Z","copyright":"The data included in this document is from www.openstreetmap.org. The data is made available under ODbL."},"elements":[{"type":"node","id":2480567921,"lat":52.2267099,"lon":21.0160039,"tags":{"emergency":"fire_hydrant","fire_hydrant:diameter":"200","fire_hydrant:position":"sidewalk","fire_hydrant:type":"underground","ref":"32400","source":"GPS(APK:StrazakOSM)"}},{"type":"node","id":8507881486,"lat":52.2268267,"lon":21.0160479,"tags":{"barrier":"gate"}},{"type":"node","id":8507881488,"lat":52.2269265,"lon":21.0165269,"tags":{"barrier":"gate"}},{"type":"node","id":8596387437,"lat":52.2269879,"lon":21.0157633,"tags":{"direction":"both","traffic_calming":"bump"}},{"type":"node","id":9463123340,"lat":52.2269753,"lon":21.0155276,"tags":{"barrier":"gate"}},{"type":"node","id":9463123343,"lat":52.2272158,"lon":21.0154736,"tags":{"noexit":"yes"}},{"type":"node","id":9463130576,"lat":52.2267466,"lon":21.015787,"tags":{"access":"private","barrier":"lift_gate"}},{"type":"node","id":9502959297,"lat":52.2267912,"lon":21.0165312,"tags":{"amenity":"vending_machine","check_date":"2023-07-19","operator":"ZDM Warszawa","ref":"G020313","vending":"parking_tickets"}},{"type":"node","id":10154587304,"lat":52.2269372,"lon":21.0158266,"tags":{"direction":"160","traffic_sign":"PL:D-40"}},{"type":"node","id":10154587306,"lat":52.2269222,"lon":21.0157604,"tags":{"direction":"340","traffic_sign":"PL:D-41"}},{"type":"node","id":10568048910,"lat":52.2272325,"lon":21.0155708,"tags":{"barrier":"chain","motor_vehicle":"no"}},{"type":"node","id":10568048913,"lat":52.2267176,"lon":21.0162446,"tags":{"barrier":"kerb","kerb":"lowered","tactile_paving":"yes"}},{"type":"node","id":10979328062,"lat":52.2272941,"lon":21.0155079,"tags":{"addr:housenumber":"29\/33","addr:street":"Wsp\u00f3lna","check_date":"2023-06-15","name":"Bancerovsky","opening_hours":"Mo-Fr 12:00-20:00; Sa 10:00-14:00","shop":"hairdresser","wheelchair":"limited"}},{"type":"node","id":10979328063,"lat":52.2273083,"lon":21.0158086,"tags":{"addr:housenumber":"27A","addr:street":"Wsp\u00f3lna","beauty":"hair;cosmetics","check_date":"2023-06-15","name":"Instytut Urody","shop":"beauty","wheelchair":"yes"}},{"type":"node","id":10979328064,"lat":52.2269847,"lon":21.0158602,"tags":{"access":"private","amenity":"bicycle_parking","bicycle_parking":"stands","capacity":"10","covered":"no"}},{"type":"node","id":10979589992,"lat":52.2271081,"lon":21.0158876,"tags":{"barrier":"gate"}},{"type":"node","id":11055281436,"lat":52.2268705,"lon":21.015609,"tags":{"addr:housenumber":"40","addr:street":"Ho\u017ca","check_date":"2023-07-19","craft":"watchmaker","name":"Gold Top","opening_hours":"Mo-Th 10:30-17:00; Fr 10:30-15:00","wheelchair":"yes"}},{"type":"node","id":11055281454,"lat":52.2268522,"lon":21.0155242,"tags":{"addr:housenumber":"40","addr:street":"Ho\u017ca","check_date":"2023-07-19","name":"Pingle","opening_hours":"Mo-Fr 11:00-19:00; Sa 10:00-14:00","shop":"optician","wheelchair":"yes"}},{"type":"node","id":11055281455,"lat":52.2267964,"lon":21.0155524,"tags":{"amenity":"bicycle_parking","bicycle_parking":"stands","capacity":"2","covered":"no"}},{"type":"node","id":11055281456,"lat":52.2268306,"lon":21.0157142,"tags":{"amenity":"bicycle_parking","bicycle_parking":"stands","capacity":"2","covered":"no"}},{"type":"node","id":11055281458,"lat":52.2268919,"lon":21.0156983,"tags":{"addr:housenumber":"40","addr:street":"Ho\u017ca","check_date":"2023-07-19","female":"yes","male":"yes","noname":"yes","opening_hours":"Mo-Fr 08:00-20:00; Sa 08:00-14:00","shop":"hairdresser","wheelchair":"limited"}},{"type":"node","id":11405148501,"lat":52.2268929,"lon":21.0157435,"tags":{"information":"board","name":"Antoni Grabowski","tourism":"information"}}]}