{"version":0.6,"generator":"Overpass API 0.7.62.5 1bd436f1","osm3s":{"timestamp_osm_base":"2025-03-12T13:51:45Z","copyright":"The data included in this document is from www.openstreetmap.org. The data is made available under ODbL."},"elements":[{"type":"node","id":312054517,"lat":52.2246192,"lon":21.0137721,"tags":{"barrier":"lift_gate"}},{"type":"node","id":378177306,"lat":52.2244014,"lon":21.0139499,"tags":{"addr:housenumber":"35\/41","addr:postcode":"00-678","addr:street":"Wilcza","alt_name":"Wilcza Grill & Bar","amenity":"restaurant","check_date":"2024-06-20","name":"Okocim Grill & Bar","opening_hours":"Mo-Th 13:00-24:00; Fr-Sa 13:00-02:00; Su 15:00-23:00","outdoor_seating":"yes","phone":"+48 502 450 180","website":"https:\/\/okocimbeer.pub\/","wheelchair":"limited"}},{"type":"node","id":3448360495,"lat":52.2246276,"lon":21.0140729,"tags":{"barrier":"lift_gate"}},{"type":"node","id":5806824056,"lat":52.2245596,"lon":21.0136109,"tags":{"addr:housenumber":"42","addr:street":"Wilcza","alt_name":"Coffee Desk","amenity":"cafe","check_date":"2024-06-20","name":"CoffeeDesk","opening_hours":"Mo-Fr 07:30-20:00; Sa 09:00-20:00; Su 10:00-20:00","outdoor_seating":"yes","wheelchair":"no"}},{"type":"node","id":9035818717,"lat":52.2242945,"lon":21.0134625,"tags":{"addr:housenumber":"43","addr:street":"Wilcza","amenity":"bar","check_date":"2024-06-20","name":"Nola Bar","opening_hours":"Tu-Th 18:00-00:00; Fr-Sa 18:00-02:00","outdoor_seating":"yes","wheelchair":"limited"}},{"type":"node","id":9211791576,"lat":52.2244731,"lon":21.0136216,"tags":{"amenity":"bicycle_parking","bicycle_parking":"stands","capacity":"6","covered":"no"}},{"type":"node","id":9502756672,"lat":52.2244752,"lon":21.0140732,"tags":{"amenity":"vending_machine","check_date":"2022-09-16","operator":"ZDM Warszawa","ref":"G040811","vending":"parking_tickets"}},{"type":"node","id":9502756681,"lat":52.2244236,"lon":21.0132925,"tags":{"amenity":"vending_machine","check_date":"2022-09-16","operator":"ZDM Warszawa","ref":"G040706","vending":"parking_tickets"}},{"type":"node","id":10029846308,"lat":52.2244814,"lon":21.0141765,"tags":{"historic":"memorial","memorial":"plaque","name":"Harcerska Poczta Polowa"}},{"type":"node","id":10029849920,"lat":52.2245416,"lon":21.0135235,"tags":{"addr:housenumber":"42","addr:street":"Wilcza","check_date":"2024-06-20","male":"yes","name":"Undercut","opening_hours":"Mo-Fr 08:00-22:00; Sa 09:00-16:00","shop":"hairdresser","wheelchair":"no"}},{"type":"node","id":12057853883,"lat":52.2241564,"lon":21.013338,"tags":{"noexit":"yes"}}]}