{"version":0.6,"generator":"Overpass API 0.7.62.5 1bd436f1","osm3s":{"timestamp_osm_base":"2025-03-12T13:21:02Z","copyright":"The data included in this document is from www.openstreetmap.org. The data is made available under ODbL."},"elements":[{"type":"node","id":1578659339,"lat":52.2238355,"lon":21.0101802,"tags":{"addr:city":"Warszawa","addr:housenumber":"58A","addr:street":"Wilcza","amenity":"restaurant","check_date":"2024-06-20","name":"Znajomi","opening_hours":"Mo-We 12:00-22:00; Th 12:00-23:00; Fr 12:00-01:00; Sa 16:00-01:00","outdoor_seating":"yes","website":"https:\/\/www.restauracjaznajomi.pl\/","wheelchair":"no"}},{"type":"node","id":2334329173,"lat":52.2237718,"lon":21.0104756,"tags":{"surface":"paving_stones","traffic_calming":"hump"}},{"type":"node","id":7726140843,"lat":52.2235878,"lon":21.0100782,"tags":{"addr:city":"Warszawa","addr:housenumber":"55\/63","addr:street":"Wilcza","check_date":"2024-06-20","craft":"shoemaker","name":"Takie Buty","opening_hours":"Mo-Fr 09:00-17:00","shop":"shoe_repair","wheelchair":"limited"}},{"type":"node","id":7906667883,"lat":52.2236788,"lon":21.0104896,"tags":{"amenity":"bicycle_parking","bicycle_parking":"stands","capacity":"24","covered":"no"}},{"type":"node","id":7906670292,"lat":52.223557,"lon":21.0104018,"tags":{"access":"customers","barrier":"gate"}},{"type":"node","id":9396486169,"lat":52.2236018,"lon":21.0101049,"tags":{"addr:city":"Warszawa","addr:city:simc":"0918123","addr:housenumber":"55\/63","addr:postcode":"00-679","addr:street":"Wilcza","source:addr":"gugik.gov.pl"}},{"type":"node","id":9396486209,"lat":52.2237977,"lon":21.0109918,"tags":{"access":"private","barrier":"gate"}},{"type":"node","id":9396486336,"lat":52.2237542,"lon":21.0108369,"tags":{"addr:city":"Warszawa","addr:city:simc":"0918123","addr:housenumber":"53","addr:postcode":"00-679","addr:street":"Wilcza","source:addr":"gugik.gov.pl"}},{"type":"node","id":9502756677,"lat":52.2237005,"lon":21.0103385,"tags":{"amenity":"vending_machine","check_date":"2023-04-21","operator":"ZDM Warszawa","ref":"G040804","vending":"parking_tickets"}},{"type":"node","id":10830107204,"lat":52.2236083,"lon":21.0101718,"tags":{"addr:housenumber":"55\/63","addr:street":"Wilcza","check_date":"2024-06-20","female:signed":"no","male:signed":"no","name":"Jadwiga","opening_hours":"Mo-Tu,Th-Fr 10:00-18:00; Sa 10:00-14:00","shop":"hairdresser","wheelchair":"limited"}},{"type":"node","id":10830133907,"lat":52.2237929,"lon":21.0100854,"tags":{"addr:housenumber":"60","addr:street":"Wilcza","check_date":"2024-06-20","name":"L'enfant","opening_hours":"Mo-Fr 11:00-19:00; Sa 10:00-16:00","shop":"baby_goods","wheelchair":"no"}},{"type":"node","id":10830133910,"lat":52.2236281,"lon":21.0102539,"tags":{"addr:housenumber":"55\/63","addr:street":"Wilcza","check_date":"2024-06-20","name":"Agra-Art","office":"company","opening_hours":"Mo-Fr 11:00-18:00; Sa 11:00-15:00","wheelchair":"limited"}},{"type":"node","id":10830133913,"lat":52.2238357,"lon":21.0103296,"tags":{"access":"customers","amenity":"bicycle_parking","bicycle_parking":"wall_loops","capacity":"4","covered":"no"}},{"type":"node","id":10830133914,"lat":52.223781,"lon":21.0100316,"tags":{"addr:housenumber":"60","addr:street":"Wilcza","check_date":"2024-06-20","disused:shop":"hairdresser","name":"Bagatela","wheelchair":"no"}},{"type":"node","id":10830133917,"lat":52.2237601,"lon":21.0099391,"tags":{"addr:housenumber":"60","addr:street":"Wilcza","check_date":"2024-06-20","name":"Mix\/Max","opening_hours":"Mo-Fr 09:00-17:00","shop":"security","wheelchair":"no"}},{"type":"node","id":10830133919,"lat":52.2235723,"lon":21.0099994,"tags":{"addr:housenumber":"55\/63","addr:street":"Wilcza","check_date":"2024-06-20","name":"Artessia","opening_hours":"Mo-Fr 12:00-19:00","shop":"art","wheelchair":"limited"}},{"type":"node","id":11057404803,"lat":52.2233201,"lon":21.0104329,"tags":{"amenity":"kindergarten","email":"p33@edu.um.warszawa.pl","name":"Przedszkole nr 33","official_name":"Przedszkole nr 33","operator":"\u015ar\u00f3dmie\u015bcie","operator:type":"government","phone":"+48 226297473","ref:regon":"013004232","ref:rspo":"31597","ref:vatin":"PL5262391079","website":"https:\/\/p33w-wa.wikom.pl\/"}},{"type":"node","id":11994902712,"lat":52.2237563,"lon":21.0101358,"tags":{"amenity":"vending_machine","check_date":"2024-06-20","vending":"excrement_bags"}}]}