{"version":0.6,"generator":"Overpass API 0.7.62.5 1bd436f1","osm3s":{"timestamp_osm_base":"2025-03-12T14:13:02Z","copyright":"The data included in this document is from www.openstreetmap.org. The data is made available under ODbL."},"elements":[{"type":"node","id":248200537,"lat":52.2235175,"lon":21.0149958,"tags":{"addr:city":"Warszawa","addr:housenumber":"55\/73","addr:street":"Marsza\u0142kowska","check_date":"2024-04-11","disused:amenity":"fast_food","email":"biuro@barzlotakurka.pl","name":"Z\u0142ota Kurka","phone":"+48 22 6213280","website":"http:\/\/www.barzlotakurka.pl\/","wheelchair":"limited"}},{"type":"node","id":316886561,"lat":52.2233455,"lon":21.0147965,"tags":{"access":"private","barrier":"lift_gate"}},{"type":"node","id":1297481071,"lat":52.2237223,"lon":21.0148725,"tags":{"addr:city":"Warszawa","addr:housenumber":"55\/73","addr:street":"Marsza\u0142kowska","amenity":"fast_food","check_date":"2024-04-11","cuisine":"polish","diet:vegetarian":"yes","name":"Marsza\u0142kowski Bar Mleczny","opening_hours":"08:00-19:00","wheelchair":"limited"}},{"type":"node","id":2334377495,"lat":52.2233519,"lon":21.0153386,"tags":{"natural":"tree"}},{"type":"node","id":3694128537,"lat":52.2233048,"lon":21.0153925,"tags":{"barrier":"kerb","kerb":"lowered","tactile_paving":"yes"}},{"type":"node","id":8880813109,"lat":52.2239552,"lon":21.0147455,"tags":{"addr:housenumber":"55\/73","addr:street":"Marsza\u0142kowska","amenity":"library","check_date":"2023-05-06","check_date:opening_hours":"2024-06-20","name":"Wypo\u017cyczalnia dla Doros\u0142ych i M\u0142odzie\u017cy Nr 7","opening_hours":"Mo-Fr 10:00-19:00","operator":"Biblioteka Publiczna w Dzielnicy \u015ar\u00f3dmie\u015bcie m.st. Warszawy","toilets":"yes","toilets:access":"yes","toilets:wheelchair":"yes","wheelchair":"yes"}},{"type":"node","id":8927686633,"lat":52.223365,"lon":21.0154315,"tags":{"highway":"traffic_signals"}},{"type":"node","id":9396426159,"lat":52.2233408,"lon":21.0151264,"tags":{"access":"yes","barrier":"gate"}},{"type":"node","id":9502756666,"lat":52.2236501,"lon":21.0151451,"tags":{"amenity":"vending_machine","check_date":"2023-05-06","operator":"ZDM Warszawa","ref":"G040813","vending":"parking_tickets"}},{"type":"node","id":11819907406,"lat":52.2239483,"lon":21.0151801,"tags":{"noexit":"yes"}},{"type":"node","id":11994971503,"lat":52.2238203,"lon":21.0150213,"tags":{"amenity":"bicycle_parking","bicycle_parking":"stands","capacity":"10","covered":"no"}}]}