{"version":0.6,"generator":"Overpass API 0.7.62.5 1bd436f1","osm3s":{"timestamp_osm_base":"2025-03-12T13:11:00Z","copyright":"The data included in this document is from www.openstreetmap.org. The data is made available under ODbL."},"elements":[{"type":"node","id":3111180638,"lat":52.2286732,"lon":21.0069224,"tags":{"highway":"street_lamp"}},{"type":"node","id":5224357722,"lat":52.228529,"lon":21.0068301,"tags":{"addr:city":"Warszawa","addr:housenumber":"57","addr:postcode":"00-697","addr:street":"Aleje Jerozolimskie","brand":"Carrefour Express","brand:wikidata":"Q2940190","brand:wikipedia":"fr:Carrefour Express","check_date":"2024-11-19","disused:shop":"convenience","name":"Carrefour Express","name:ja":"\u30ab\u30eb\u30d5\u30fc\u30eb\u30fb\u30a8\u30ad\u30b9\u30d7\u30ec\u30b9","name:ja-Hira":"\u304b\u308b\u3075\u30fc\u308b\u30fb\u3048\u304d\u3059\u3077\u308c\u3059","opening_hours":"24\/7","wheelchair":"no"}},{"type":"node","id":8761605200,"lat":52.2285564,"lon":21.007305,"tags":{"amenity":"language_school","check_date":"2023-10-10","language":"pl","name":"Academia Polonica"}},{"type":"node","id":8761605201,"lat":52.2285356,"lon":21.00723,"tags":{"amenity":"language_school","check_date":"2023-10-10","language":"tr","name":"Centrum Kultury Tureckiej","name:tr":"Yunus Emre Enstit\u00fct\u00fcs\u00fc Centrum Kultury Tureckiej"}},{"type":"node","id":8761605202,"lat":52.228599,"lon":21.0072916,"tags":{"amenity":"language_school","check_date":"2023-10-10","language":"pl","name":"Klub Dialogu"}},{"type":"node","id":8761605203,"lat":52.22862,"lon":21.00723,"tags":{"addr:housenumber":"55","addr:street":"Aleje Jerozolimskie","check_date":"2023-10-10","name":"Remax","office":"estate_agent","opening_hours":"Mo-Fr 11:00-18:00","phone":"+48 22 592 86 68","wheelchair":"limited"}},{"type":"node","id":8761625210,"lat":52.2286405,"lon":21.0073157,"tags":{"addr:housenumber":"55","addr:street":"Aleje Jerozolimskie","check_date":"2023-10-10","name":"Bookland","opening_hours":"Mo-Fr 10:00-18:00; Sa 10:00-14:00; Su off","shop":"books","wheelchair":"limited"}},{"type":"node","id":9032860116,"lat":52.2286573,"lon":21.0073933,"tags":{"addr:housenumber":"55","addr:street":"Aleje Jerozolimskie","check_date":"2023-10-10","male":"yes","name":"Brand","opening_hours":"Mo-Fr 09:00-21:00; Sa-Su 10:00-20:00","shop":"hairdresser","wheelchair":"limited"}},{"type":"node","id":9032878124,"lat":52.2286408,"lon":21.0069118,"tags":{"amenity":"vending_machine","operator":"ZDM Warszawa","ref":"E040228","vending":"parking_tickets"}},{"type":"node","id":9032878129,"lat":52.2286506,"lon":21.0075517,"tags":{"check_date":"2023-10-10","name":"Polska \u017begluga Morska","office":"company"}},{"type":"node","id":9032878131,"lat":52.2285584,"lon":21.0067437,"tags":{"amenity":"bicycle_parking","bicycle_parking":"wall_loops","capacity":"3","covered":"no"}},{"type":"node","id":9471919357,"lat":52.2282715,"lon":21.0070023,"tags":{"noexit":"yes"}},{"type":"node","id":11253140782,"lat":52.2286034,"lon":21.0074815,"tags":{"addr:housenumber":"55","addr:street":"Aleje Jerozolimskie","check_date":"2023-10-10","name":"Antykwariat Warszawski","opening_hours":"Mo-Fr 11:00-14:00,14:30-18:00","second_hand":"only","shop":"books","wheelchair":"limited"}},{"type":"node","id":11253140787,"lat":52.2287051,"lon":21.0076099,"tags":{"addr:housenumber":"55","addr:street":"Aleje Jerozolimskie","check_date":"2023-10-10","shop":"vacant","wheelchair":"no"}},{"type":"node","id":11253140789,"lat":52.228487,"lon":21.0066372,"tags":{"addr:housenumber":"59","addr:street":"Aleje Jerozolimskie","check_date":"2023-10-10","shop":"vacant","wheelchair":"limited"}},{"type":"node","id":11777873557,"lat":52.2287159,"lon":21.0075115,"tags":{"information":"board","name":"Kamienica Franciszka \u0141api\u0144skiego","tourism":"information"}}]}