{"version":0.6,"generator":"Overpass API 0.7.62.5 1bd436f1","osm3s":{"timestamp_osm_base":"2025-03-12T13:11:00Z","copyright":"The data included in this document is from www.openstreetmap.org. The data is made available under ODbL."},"elements":[{"type":"node","id":180760709,"lat":52.2227812,"lon":21.0075057,"tags":{"access":"private","barrier":"gate","bicycle":"permissive","foot":"permissive","locked":"yes","material":"metal"}},{"type":"node","id":312054246,"lat":52.223167,"lon":21.0069822,"tags":{"check_date":"2023-03-02","dispensing":"yes","disused:shop":"medical_supply","name":"Ormex","opening_hours":"Mo-Fr 10:00-18:00","wheelchair":"yes"}},{"type":"node","id":334558468,"lat":52.2228444,"lon":21.0076835,"tags":{"bus":"yes","name":"Noakowskiego 01","network":"ZTM Warszawa","network:wikidata":"Q8066998","operator":"Zarz\u0105d Transportu Miejskiego w Warszawie","public_transport":"stop_position","ref":"700401","stop_position:direction":"backward"}},{"type":"node","id":1330283528,"lat":52.2228791,"lon":21.0070873,"tags":{"crossing":"uncontrolled","crossing:island":"yes","crossing:markings":"zebra","crossing_ref":"zebra","highway":"crossing","tactile_paving":"yes"}},{"type":"node","id":2153175836,"lat":52.2229378,"lon":21.0068973,"tags":{"direction":"forward","highway":"give_way"}},{"type":"node","id":2642855324,"lat":52.2227916,"lon":21.0075076,"tags":{"crossing":"unmarked","crossing:island":"no","crossing:markings":"no","highway":"crossing","tactile_paving":"no"}},{"type":"node","id":4738323521,"lat":52.2231931,"lon":21.0071979,"tags":{"addr:housenumber":"74","addr:street":"Wilcza","amenity":"pharmacy","check_date":"2023-03-08","dispensing":"yes","healthcare":"pharmacy","name":"S\u0142oneczna","opening_hours":"Mo-Fr 07:00-21:00; Sa 08:00-15:00","ref:csioz":"1085869","wheelchair":"yes"}},{"type":"node","id":5553195559,"lat":52.2230132,"lon":21.0073753,"tags":{"addr:city":"Warszawa","addr:city:simc":"0918123","addr:housenumber":"79","addr:street":"Wilcza","source:addr":"gugik.gov.pl"}},{"type":"node","id":5553195560,"lat":52.2230742,"lon":21.0076624,"tags":{"addr:city":"Warszawa","addr:city:simc":"0918123","addr:housenumber":"77","addr:street":"Wilcza","source:addr":"gugik.gov.pl"}},{"type":"node","id":8260669519,"lat":52.2230023,"lon":21.0069225,"tags":{"crossing":"uncontrolled","crossing:island":"no","crossing:markings":"zebra","crossing_ref":"zebra","highway":"crossing","tactile_paving":"yes"}},{"type":"node","id":8612751197,"lat":52.2229932,"lon":21.006977,"tags":{"barrier":"kerb","kerb":"flush","tactile_paving":"yes"}},{"type":"node","id":8612751200,"lat":52.2230101,"lon":21.0068763,"tags":{"barrier":"kerb","kerb":"flush","tactile_paving":"yes"}},{"type":"node","id":8975061366,"lat":52.2232853,"lon":21.0074176,"tags":{"addr:city":"Warszawa","addr:door":"1","addr:housenumber":"72","addr:postcode":"00-670","addr:street":"Wilcza","check_date":"2023-03-02","email":"pruszczynska@notariusze.waw.pl","name":"Marta J\u00f3zefina Pruszczy\u0144ska","office":"notary","phone":"+48226251237","website":"https:\/\/notariusze.waw.pl\/kancelaria-notarialna\/kancelaria,kancelaria-notarialna-marta-jozefina-pruszczynska"}},{"type":"node","id":9502756684,"lat":52.2228397,"lon":21.0068971,"tags":{"amenity":"vending_machine","check_date":"2023-03-02","operator":"ZDM Warszawa","ref":"G160110","vending":"parking_tickets"}},{"type":"node","id":10075867747,"lat":52.2226815,"lon":21.0075491,"tags":{"amenity":"bicycle_parking","bicycle_parking":"wall_loops","capacity":"5","covered":"no","fee":"no"}},{"type":"node","id":10075867748,"lat":52.2226707,"lon":21.0075764,"tags":{"amenity":"bicycle_parking","bicycle_parking":"wall_loops","capacity":"5","covered":"no","fee":"no"}},{"type":"node","id":10082782696,"lat":52.22278,"lon":21.0075622,"tags":{"amenity":"bench","backrest":"no","material":"wood"}},{"type":"node","id":10082782697,"lat":52.22278,"lon":21.0076001,"tags":{"amenity":"waste_basket","material":"concrete"}},{"type":"node","id":10082782704,"lat":52.222701,"lon":21.0075294,"tags":{"advertising":"column"}},{"type":"node","id":10082796819,"lat":52.2227835,"lon":21.0074622,"tags":{"access":"permissive","barrier":"gate","horse":"no","material":"metal","motor_vehicle":"no"}},{"type":"node","id":10082796844,"lat":52.2227929,"lon":21.0074837,"tags":{"barrier":"kerb","kerb":"lowered","tactile_paving":"no"}},{"type":"node","id":10082796845,"lat":52.2227902,"lon":21.0075342,"tags":{"barrier":"kerb","kerb":"lowered","tactile_paving":"no"}},{"type":"node","id":10085734112,"lat":52.222918,"lon":21.0070924,"tags":{"barrier":"kerb","kerb":"lowered","tactile_paving":"yes"}},{"type":"node","id":10085734113,"lat":52.2228422,"lon":21.0070824,"tags":{"barrier":"kerb","kerb":"lowered","tactile_paving":"yes"}},{"type":"node","id":10109725633,"lat":52.2227356,"lon":21.0075499,"tags":{"direction":"275","information":"map","map_size":"campus","map_type":"street","tourism":"information"}},{"type":"node","id":10109725636,"lat":52.2227657,"lon":21.0073901,"tags":{"amenity":"bicycle_parking","bicycle_parking":"wall_loops","capacity":"4","covered":"no","fee":"no","wikimedia_commons":"File:Ma\u0142y parking rowerowy na rogu ogrodzenia i budynku.jpg"}},{"type":"node","id":10109725657,"lat":52.2226427,"lon":21.0066523,"tags":{"amenity":"bench","backrest":"yes","material":"wood","wikimedia_commons":"File:Drewniana \u0142awka przy budynku.jpg"}},{"type":"node","id":10579242641,"lat":52.2229474,"lon":21.0076048,"tags":{"addr:housenumber":"73","addr:street":"Wilcza","amenity":"restaurant","brand":"Nobu","check_date":"2023-03-02","cuisine":"japanese","email":"dine-warsaw@nobuhotels.com","name":"Nobu","phone":"+48 22 551 88 00","website":"https:\/\/noburestaurants.com\/warsaw\/home-warsaw\/","wheelchair":"yes"}},{"type":"node","id":10704874606,"lat":52.2232328,"lon":21.0074436,"tags":{"addr:housenumber":"72","addr:street":"Wilcza","check_date":"2023-03-02","name":"Tomasz Szyma\u0144ski","opening_hours":"Mo-Fr 09:00-20:00; Sa 10:00-16:00","shop":"hairdresser","wheelchair":"yes"}},{"type":"node","id":10704874607,"lat":52.2230091,"lon":21.0074431,"tags":{"addr:housenumber":"73","addr:street":"Wilcza","amenity":"nightclub","check_date":"2023-03-02","name":"Jassmine","website":"https:\/\/jassmine.com"}},{"type":"node","id":10721637678,"lat":52.2232367,"lon":21.007588,"tags":{"historic":"memorial","material":"stone","memorial":"plaque","name":"Batalion AK \"Golski\""}},{"type":"node","id":10721637679,"lat":52.2232695,"lon":21.007614,"tags":{"addr:housenumber":"72","addr:street":"Wilcza","beauty":"cosmetics","check_date":"2023-03-08","name":"Clarena","opening_hours":"Mo-Fr 08:00-18:00","shop":"beauty","wheelchair":"yes"}},{"type":"node","id":10802139728,"lat":52.2227059,"lon":21.0074067,"tags":{"historic":"memorial","material":"stone","memorial":"plaque","name":"Anna Smole\u0144ska i Tadeusz Zawadzki"}},{"type":"node","id":10837406958,"lat":52.2227428,"lon":21.0072302,"tags":{"addr:flats":"1-10,40","entrance":"staircase","ref":"1"}},{"type":"node","id":10837406959,"lat":52.2227485,"lon":21.0070265,"tags":{"addr:flats":"11-25,37","entrance":"staircase","ref":"2"}},{"type":"node","id":10837406960,"lat":52.2227656,"lon":21.0068226,"tags":{"addr:flats":"26-39","entrance":"staircase","ref":"3"}},{"type":"node","id":10837406961,"lat":52.222763,"lon":21.0067099,"tags":{"addr:flats":"43","entrance":"home"}},{"type":"node","id":10837431372,"lat":52.2227085,"lon":21.00762,"tags":{"leaf_type":"needleleaved","natural":"tree"}},{"type":"node","id":10837431376,"lat":52.2227666,"lon":21.0076662,"tags":{"leaf_type":"needleleaved","natural":"tree"}},{"type":"node","id":10837431377,"lat":52.2227682,"lon":21.0076391,"tags":{"leaf_type":"broadleaved","natural":"tree"}},{"type":"node","id":10837431383,"lat":52.2227719,"lon":21.0075749,"tags":{"leaf_type":"needleleaved","natural":"tree"}},{"type":"node","id":10837431385,"lat":52.2227658,"lon":21.0076976,"tags":{"leaf_type":"needleleaved","natural":"tree"}},{"type":"node","id":11047910050,"lat":52.222785,"lon":21.0076727,"tags":{"bench":"yes","bin":"yes","bus":"yes","highway":"bus_stop","lit":"yes","name":"Noakowskiego 01","network":"ZTM Warszawa","network:wikidata":"Q8066998","operator":"Zarz\u0105d Transportu Miejskiego w Warszawie","public_transport":"platform","ref":"700401","shelter":"yes","tactile_paving":"no","url":"https:\/\/www.wtp.waw.pl\/rozklady-jazdy\/?wtp_md=8&wtp_st=7004&wtp_pt=01"}},{"type":"node","id":11472602830,"lat":52.2231661,"lon":21.0071995,"tags":{"information":"board","name":"Ulica Wilcza","tourism":"information"}}]}