{"version":0.6,"generator":"Overpass API 0.7.62.5 1bd436f1","osm3s":{"timestamp_osm_base":"2025-03-12T13:11:00Z","copyright":"The data included in this document is from www.openstreetmap.org. The data is made available under ODbL."},"elements":[{"type":"node","id":1330252701,"lat":52.2257561,"lon":21.0070463,"tags":{"crossing":"uncontrolled","crossing:island":"no","crossing:markings":"zebra","crossing_ref":"zebra","highway":"crossing","tactile_paving":"yes"}},{"type":"node","id":1330252723,"lat":52.2258128,"lon":21.0068629,"tags":{"crossing":"uncontrolled","crossing:island":"no","crossing:markings":"zebra","crossing_ref":"zebra","highway":"crossing","tactile_paving":"yes"}},{"type":"node","id":1330252901,"lat":52.2256605,"lon":21.0069475,"tags":{"crossing":"zebra","crossing:island":"no","crossing_ref":"zebra","highway":"crossing","tactile_paving":"yes"}},{"type":"node","id":1330266174,"lat":52.2256949,"lon":21.0067483,"tags":{"crossing":"uncontrolled","crossing:island":"no","crossing:markings":"zebra","crossing_ref":"zebra","highway":"crossing","tactile_paving":"yes"}},{"type":"node","id":2025263453,"lat":52.2255444,"lon":21.0066965,"tags":{"addr:city":"Warszawa","addr:city:simc":"0918123","addr:housenumber":"27","addr:postcode":"00-688","addr:street":"Emilii Plater","source:addr":"gugik.gov.pl"}},{"type":"node","id":2193063148,"lat":52.2256238,"lon":21.0071661,"tags":{"addr:city":"Warszawa","addr:floor":"G","addr:housenumber":"73","addr:street":"Wsp\u00f3lna","brand":"Carrefour Express","brand:wikidata":"Q2940190","brand:wikipedia":"fr:Carrefour Express","check_date":"2025-03-11","check_date:opening_hours":"2025-03-11","level":"0","name":"Carrefour Express","opening_hours":"Mo-Fr 06:30-21:00; Sa 07:00-21:00; Su 09:30-17:00","payment:blik":"yes","payment:maestro":"yes","payment:mastercard":"yes","payment:visa":"yes","shop":"convenience","wheelchair":"no"}},{"type":"node","id":2482327761,"lat":52.2253928,"lon":21.0077145,"tags":{"addr:city":"Warszawa","addr:housenumber":"20\/33","addr:postcode":"00-688","addr:street":"Emilii Plater","alt_name":"Kancelaria Radc\u00f3w Prawnych i Adwokat\u00f3w","email":"kancelaria@klimaszewskasmyk.pl","fax":"+48 22 622 22 69","name":"Klimaszewska, Smyk & Wsp\u00f3lnicy","office":"lawyer","phone":"+48 22 622 22 61","website":"https:\/\/www.klimaszewskasmyk.pl\/"}},{"type":"node","id":3875669257,"lat":52.2253387,"lon":21.0073185,"tags":{"addr:housenumber":"20","addr:street":"Emilii Plater","amenity":"dentist","check_date":"2023-04-20","healthcare":"dentist","healthcare:speciality":"surgery;plastic_surgery;dermatology;physiotherapy;endocrinology;dentistry","name":"Estetiq","opening_hours":"Mo-Fr 09:00-19:00","ref:csioz":"1221913","source:disused":"Rejestr Aptek MZ","wheelchair":"no"}},{"type":"node","id":4977370015,"lat":52.2257211,"lon":21.0070678,"tags":{"barrier":"kerb","kerb":"lowered","tactile_paving":"yes"}},{"type":"node","id":4977370016,"lat":52.2257939,"lon":21.0070239,"tags":{"barrier":"kerb","kerb":"lowered","tactile_paving":"yes"}},{"type":"node","id":9140805142,"lat":52.2258261,"lon":21.0069265,"tags":{"barrier":"kerb","kerb":"lowered","tactile_paving":"yes"}},{"type":"node","id":9502756662,"lat":52.2259067,"lon":21.0074214,"tags":{"amenity":"vending_machine","operator":"ZDM Warszawa","ref":"G040402","vending":"parking_tickets"}},{"type":"node","id":10082917706,"lat":52.2256547,"lon":21.006773,"tags":{"barrier":"kerb","kerb":"lowered","tactile_paving":"yes"}},{"type":"node","id":10082917707,"lat":52.2257261,"lon":21.006729,"tags":{"barrier":"kerb","kerb":"lowered","tactile_paving":"yes"}},{"type":"node","id":10137882974,"lat":52.225803,"lon":21.0068162,"tags":{"barrier":"kerb","kerb":"lowered","tactile_paving":"yes"}},{"type":"node","id":10141506893,"lat":52.2256265,"lon":21.0069111,"tags":{"direction":"340","maxspeed":"30","traffic_sign":"maxspeed"}},{"type":"node","id":10802082217,"lat":52.2253923,"lon":21.0069464,"tags":{"addr:housenumber":"25","addr:street":"Emilii Plater","amenity":"pub","check_date":"2023-04-11","name":"Legends","opening_hours":"Mo-Fr 15+;Sa-Su 12+","wheelchair":"limited"}},{"type":"node","id":10802548426,"lat":52.2256517,"lon":21.0069063,"tags":{"barrier":"kerb","kerb":"flush","tactile_paving":"yes"}},{"type":"node","id":10802548427,"lat":52.2256755,"lon":21.0070175,"tags":{"barrier":"kerb","kerb":"flush","tactile_paving":"yes"}},{"type":"node","id":10827506987,"lat":52.2257207,"lon":21.0074083,"tags":{"addr:housenumber":"71","addr:street":"Wsp\u00f3lna","check_date":"2024-02-22","name":"Kingsize","shop":"hairdresser","wheelchair":"no"}},{"type":"node","id":10827506988,"lat":52.2257379,"lon":21.0074812,"tags":{"addr:housenumber":"71","addr:street":"Wsp\u00f3lna","check_date":"2024-02-22","name":"Artisan Dima","opening_hours":"Mo-Fr 11:00-19:00; Sa 10:00-15:00","shop":"hairdresser","wheelchair":"no"}},{"type":"node","id":12651963259,"lat":52.2257833,"lon":21.0067766,"tags":{"amenity":"waste_basket"}},{"type":"node","id":12651968911,"lat":52.2259642,"lon":21.0067334,"tags":{"amenity":"bicycle_repair_station","service:bicycle:chain_tool":"no","service:bicycle:pump":"yes","service:bicycle:stand":"no","service:bicycle:tools":"no"}}]}