{"version":0.6,"generator":"Overpass API 0.7.62.5 1bd436f1","osm3s":{"timestamp_osm_base":"2025-03-12T14:02:59Z","copyright":"The data included in this document is from www.openstreetmap.org. The data is made available under ODbL."},"elements":[{"type":"node","id":1533131151,"lat":52.2247707,"lon":21.0122492,"tags":{"addr:city":"Warszawa","addr:housenumber":"12","addr:postcode":"00-680","addr:street":"Pozna\u0144ska","amenity":"bar","check_date":"2023-10-10","contact:facebook":"https:\/\/www.facebook.com\/beiruthummusbar\/","cuisine":"lebanese","email":"biuro@beirut.com.pl","name":"Beirut","opening_hours":"Mo,Tu 12:00-24:00; We-Fr 00:00-01:00,12:00-24:00; Sa,Su 00:00-02:00,12:00-24:00","outdoor_seating":"yes","wheelchair":"limited"}},{"type":"node","id":2302367450,"lat":52.2246769,"lon":21.0122975,"tags":{"addr:city":"Warszawa","addr:housenumber":"12","addr:street":"Pozna\u0144ska","amenity":"bar","check_date":"2023-10-10","name":"Kraken","opening_hours:signed":"no","outdoor_seating":"yes","wheelchair":"limited"}},{"type":"node","id":8944685217,"lat":52.2248669,"lon":21.0121933,"tags":{"addr:housenumber":"14","addr:street":"Pozna\u0144ska","check_date":"2024-06-22","cuisine":"japanese;mochi","facebook":"fokamochishop","name":"Foka Mochi Shop","opening_hours":"Tu-Su 12:00-20:00","phone":"+48 735 983 200","shop":"confectionery","website":"https:\/\/www.fokamochi.com\/","wheelchair":"limited"}},{"type":"node","id":10029849931,"lat":52.2248985,"lon":21.0121763,"tags":{"addr:housenumber":"14","addr:street":"Pozna\u0144ska","check_date":"2023-10-10","disused:shop":"beauty","wheelchair":"limited"}},{"type":"node","id":10029849941,"lat":52.2249704,"lon":21.0121438,"tags":{"addr:housenumber":"14","addr:street":"Pozna\u0144ska","check_date":"2022-09-16","disused:craft":"electronics_repair","repair":"car_audio","wheelchair":"no"}},{"type":"node","id":10029849942,"lat":52.2249306,"lon":21.0121596,"tags":{"addr:housenumber":"14","addr:street":"Pozna\u0144ska","check_date":"2024-06-22","craft":"bookbinder","name":"J.J. Jakubiak","opening_hours":"Mo-Fr 09:00-17:00","wheelchair":"limited"}}]}