{"version":0.6,"generator":"Overpass API 0.7.62.5 1bd436f1","osm3s":{"timestamp_osm_base":"2025-03-12T13:11:58Z","copyright":"The data included in this document is from www.openstreetmap.org. The data is made available under ODbL."},"elements":[{"type":"node","id":2025532002,"lat":52.2285332,"lon":21.0117333,"tags":{"addr:city":"Warszawa","addr:city:simc":"0918123","addr:housenumber":"35\/41","addr:postcode":"00-691","addr:street":"Nowogrodzka","source:addr":"mapa.um.warszawa.pl"}},{"type":"node","id":2025532742,"lat":52.2286461,"lon":21.0111067,"tags":{"addr:city":"Warszawa","addr:city:simc":"0918123","addr:housenumber":"36","addr:postcode":"00-691","addr:street":"Nowogrodzka","source:addr":"mapa.um.warszawa.pl"}},{"type":"node","id":2025694155,"lat":52.2284572,"lon":21.0120643,"tags":{"addr:city":"Warszawa","addr:city:simc":"0918123","addr:housenumber":"91\/97","addr:postcode":"00-693","addr:street":"Marsza\u0142kowska","source:addr":"mapa.um.warszawa.pl"}},{"type":"node","id":2642880974,"lat":52.228726,"lon":21.0114656,"tags":{"barrier":"lift_gate","bicycle":"yes","foot":"yes"}},{"type":"node","id":3426841681,"lat":52.2287227,"lon":21.0119948,"tags":{"barrier":"kerb","kerb":"flush","tactile_paving":"yes","wheelchair":"yes"}},{"type":"node","id":3426869680,"lat":52.2284252,"lon":21.0111263,"tags":{"barrier":"lift_gate"}},{"type":"node","id":8779356585,"lat":52.2285624,"lon":21.0119717,"tags":{"amenity":"atm","brand":"PKO BP","cash_in":"yes","check_date":"2023-05-06","indoor":"yes","opening_hours":"24\/7","wheelchair":"yes"}},{"type":"node","id":8857503051,"lat":52.2286902,"lon":21.0111767,"tags":{"check_date":"2023-05-06","craft":"photographer","name":"Fotolab24","opening_hours:signed":"no"}},{"type":"node","id":8880730716,"lat":52.2285387,"lon":21.0119824,"tags":{"amenity":"atm","brand":"PKO BP","cash_in":"no","check_date":"2023-05-06","indoor":"yes","opening_hours":"24\/7","wheelchair":"yes"}},{"type":"node","id":8880739219,"lat":52.2285878,"lon":21.0121248,"tags":{"advertising":"column","check_date":"2023-12-17"}},{"type":"node","id":8880739223,"lat":52.2285602,"lon":21.0117829,"tags":{"amenity":"atm","brand":"PKO BP","brand:wikidata":"Q578832","check_date":"2022-08-19","covered":"yes","opening_hours":"24\/7","operator":"PKO BP","operator:wikidata":"Q578832","wheelchair":"yes"}},{"type":"node","id":9051468464,"lat":52.2286761,"lon":21.0111038,"tags":{"level":"9","name":"Mendrek Oksiejuk","office":"lawyer"}},{"type":"node","id":9051468468,"lat":52.22865,"lon":21.0112481,"tags":{"historic":"memorial","memorial":"plaque","name":"P\u00e1l Domszky"}},{"type":"node","id":9502957711,"lat":52.2285666,"lon":21.0115053,"tags":{"amenity":"vending_machine","operator":"ZDM Warszawa","ref":"G040305","vending":"parking_tickets"}},{"type":"node","id":9995498183,"lat":52.2281362,"lon":21.011117,"tags":{"amenity":"bicycle_parking","bicycle_parking":"stands","capacity":"12","covered":"no"}}]}