{"version":0.6,"generator":"Overpass API 0.7.62.5 1bd436f1","osm3s":{"timestamp_osm_base":"2025-03-12T13:03:45Z","copyright":"The data included in this document is from www.openstreetmap.org. The data is made available under ODbL."},"elements":[{"type":"node","id":4417113697,"lat":52.2252483,"lon":21.0119996,"tags":{"addr:housenumber":"16","addr:street":"Pozna\u0144ska","check_date":"2023-10-10","contact:website":"http:\/\/beztytulu.com","cuisine":"international","disused:amenity":"restaurant","name":"Bez Tytu\u0142u","opening_hours":"Mo-Th 12:00-22:00; Fr-Sa 12:0-23:00","opening_hours:signed":"no","outdoor_seating":"no","wheelchair":"no"}},{"type":"node","id":6171366285,"lat":52.2248405,"lon":21.0118445,"tags":{"addr:city":"Warszawa","addr:housenumber":"13","addr:postcode":"00-680","addr:street":"Pozna\u0144ska","check_date":"2024-02-22","cuisine":"italian;italian_pizza","diet:vegan":"yes","disused:amenity":"restaurant","email":"kontakt@leonardoverde.pl","internet_access":"wlan","name":"Leonardo Verde","opening_hours":"Mo-Th 08:00-22:00; Fr 08:00-00:15; Sa 10:00-00:15; Su 10:00-22:00","outdoor_seating":"yes","phone":"+48530880990","website":"http:\/\/www.leonardoverde.pl"}},{"type":"node","id":9466501383,"lat":52.2248805,"lon":21.0120091,"tags":{"direction":"both","traffic_calming":"hump"}},{"type":"node","id":9502756646,"lat":52.224893,"lon":21.011926,"tags":{"amenity":"vending_machine","check_date":"2022-10-04","operator":"ZDM Warszawa","ref":"G040601","vending":"parking_tickets"}},{"type":"node","id":10029846298,"lat":52.2251459,"lon":21.0120542,"tags":{"addr:housenumber":"16","addr:street":"Pozna\u0144ska","check_date":"2023-10-10","disused:amenity":"bar","name":"Ul","outdoor_seating":"yes","wheelchair":"no"}},{"type":"node","id":10029849939,"lat":52.2250541,"lon":21.0120975,"tags":{"addr:housenumber":"14","addr:street":"Pozna\u0144ska","check_date":"2023-10-10","disused:craft":"key_cutter","wheelchair":"limited"}},{"type":"node","id":10029849940,"lat":52.2250199,"lon":21.0121183,"tags":{"addr:housenumber":"14","addr:street":"Pozna\u0144ska","check_date":"2023-10-10","disused:craft":"key_cutter","disused:shop":"locksmith","name":"Mix\/Max","wheelchair":"limited"}},{"type":"node","id":10075368423,"lat":52.2249142,"lon":21.0117107,"tags":{"addr:door":"16","addr:housenumber":"13","addr:street":"Pozna\u0144ska","check_date":"2024-02-22","name":"Azazel","shop":"tattoo"}},{"type":"node","id":10075368428,"lat":52.2246808,"lon":21.0119281,"tags":{"addr:housenumber":"11","addr:street":"Pozna\u0144ska","check_date":"2024-02-22","name":"Antique","opening_hours":"Mo-Fr 14:00-20:00","shop":"art","wheelchair":"limited"}},{"type":"node","id":10075368429,"lat":52.2247318,"lon":21.0118987,"tags":{"addr:housenumber":"11","addr:street":"Pozna\u0144ska","check_date":"2024-02-22","name":"Bioton Tour","opening_hours":"Mo-Fr 11:00-17:00","shop":"travel_agency","wheelchair":"limited"}},{"type":"node","id":10075368430,"lat":52.2246964,"lon":21.0120264,"tags":{"amenity":"bicycle_parking","bicycle_parking":"stands","capacity":"2","covered":"no"}},{"type":"node","id":10075368431,"lat":52.2247645,"lon":21.0119889,"tags":{"amenity":"bicycle_parking","bicycle_parking":"stands","capacity":"4","covered":"no"}},{"type":"node","id":10075368433,"lat":52.2249677,"lon":21.0117772,"tags":{"addr:housenumber":"13","addr:street":"Pozna\u0144ska","amenity":"restaurant","check_date":"2024-02-22","name":"Tr\u00e9ma","opening_hours":"Tu-Fr 08:00-14:00,18:00-23:00; Sa 10:00-01:00; Su 10:00-18:00","outdoor_seating":"yes","wheelchair":"no"}},{"type":"node","id":10075368434,"lat":52.2250768,"lon":21.0117225,"tags":{"addr:housenumber":"15","addr:street":"Pozna\u0144ska","amenity":"restaurant","check_date":"2024-02-22","name":"Signature","opening_hours":"12:00-23:00","outdoor_seating":"yes"}},{"type":"node","id":10075368435,"lat":52.2251196,"lon":21.0116012,"tags":{"addr:housenumber":"15","addr:street":"Pozna\u0144ska","check_date":"2024-02-22","name":"H15","stars":"5","tourism":"hotel"}},{"type":"node","id":10075368436,"lat":52.2252875,"lon":21.0115886,"tags":{"amenity":"doctors","check_date":"2024-02-22","healthcare":"doctor","healthcare:speciality":"internal;paediatrics;dentist","name":"\u015awiat Zdrowia","opening_hours":"Mo-Fr 08:00-18:00"}},{"type":"node","id":11046440500,"lat":52.2250985,"lon":21.0113992,"tags":{"access":"permissive","amenity":"piano","musical_instrument:type":"piano"}}]}