{"version":0.6,"generator":"Overpass API 0.7.62.5 1bd436f1","osm3s":{"timestamp_osm_base":"2025-03-12T14:14:01Z","copyright":"The data included in this document is from www.openstreetmap.org. The data is made available under ODbL."},"elements":[{"type":"node","id":778328502,"lat":52.2259478,"lon":21.0083956,"tags":{"addr:housenumber":"65A","addr:postcode":"00-687","addr:street":"Wsp\u00f3lna","amenity":"restaurant","check_date":"2024-02-22","cuisine":"indian","name":"Katmandu","opening_hours":"Mo-Fr 11:00-22:00; Sa-Su 12:00-22:00","wheelchair":"no"}},{"type":"node","id":5089332716,"lat":52.225975,"lon":21.0085104,"tags":{"addr:housenumber":"65A","addr:street":"Wsp\u00f3lna","check_date":"2024-02-22","cuisine":"arab","diet:halal":"only","name":"Gabi","opening_hours":"Mo-Fr 09:00-19:00; Sa 10:00-18:00","phone":"+48 606 616 313","shop":"deli"}},{"type":"node","id":7248630448,"lat":52.2258365,"lon":21.0079201,"tags":{"addr:city":"Warszawa","addr:housenumber":"69","addr:postcode":"00-687","addr:street":"Wsp\u00f3lna","brand":"E-Dym","check_date":"2024-02-22","disused:shop":"e-cigarette","email":"warszawa@e-dym.pl","name":"E-Dym","opening_hours":"Mo-Fr 10:00-18:00; Sa 11:00-15:00","phone":"+48 502 034 100","website":"http:\/\/e-dym.pl","wheelchair":"limited"}},{"type":"node","id":9211034079,"lat":52.2255457,"lon":21.0080697,"tags":{"noexit":"yes"}},{"type":"node","id":9502756659,"lat":52.2259169,"lon":21.0079662,"tags":{"amenity":"vending_machine","check_date":"2023-04-20","operator":"ZDM Warszawa","ref":"G040403","vending":"parking_tickets"}},{"type":"node","id":10082917700,"lat":52.2259469,"lon":21.0078924,"tags":{"direction":"both","surface":"paving_stones","traffic_calming":"hump"}},{"type":"node","id":10827506986,"lat":52.2260019,"lon":21.0086188,"tags":{"addr:housenumber":"65","addr:street":"Wsp\u00f3lna","check_date":"2024-02-22","shop":"vacant","wheelchair":"limited"}},{"type":"node","id":10827506990,"lat":52.2258029,"lon":21.0077689,"tags":{"addr:housenumber":"69","addr:street":"Wsp\u00f3lna","brand":"STS","check_date":"2024-02-22","name":"STS","opening_hours":"Mo,Su 09:00-15:00,15:15-18:00; Tu-Sa 09:00-15:00,15:15-20:00","shop":"bookmaker","wheelchair":"no"}},{"type":"node","id":10827506998,"lat":52.2257802,"lon":21.0079505,"tags":{"addr:door":"27B","addr:housenumber":"69","addr:street":"Wsp\u00f3lna","check_date":"2024-02-22","name":"Sp\u00f3\u0142dzielnia Budowlano-Mieszkaniowa \"Stolica\"","office":"property_management"}},{"type":"node","id":10827552006,"lat":52.2259134,"lon":21.0082523,"tags":{"addr:housenumber":"67","addr:street":"Wsp\u00f3lna","check_date":"2024-02-22","name":"King","opening_hours":"Mo-Fr 10:00-20:00; Sa 10:00-18:00","shop":"e-cigarette","wheelchair":"no"}},{"type":"node","id":10827552007,"lat":52.2258756,"lon":21.0080933,"tags":{"addr:housenumber":"67","addr:street":"Wsp\u00f3lna","beauty":"nails","check_date":"2024-02-22","name":"Laki","opening_hours":"Mo-Fr 10:00-20:00; Sa-Su 10:00-17:00","shop":"beauty","wheelchair":"limited"}}]}