{"version":0.6,"generator":"Overpass API 0.7.62.5 1bd436f1","osm3s":{"timestamp_osm_base":"2025-03-12T11:58:39Z","copyright":"The data included in this document is from www.openstreetmap.org. The data is made available under ODbL."},"elements":[{"type":"node","id":310650881,"lat":52.4789582,"lon":-1.8997018,"tags":{"addr:city":"Birmingham","addr:postcode":"B2 4JD","addr:street":"Lower Temple Street","amenity":"pub","architect":"Arthur Edwards","brand":"Nicholson's","brand:wikidata":"Q113130666","fhrs:id":"603770","name":"The Shakespeare","operator":"Nicholson's Pubs","outdoor_seating":"yes","source":"survey","start_date":"1911","website":"https:\/\/www.nicholsonspubs.co.uk\/restaurants\/eastandwestmidlands\/theshakespearelowertemplestreetbirmingham"}},{"type":"node","id":310679128,"lat":52.4786817,"lon":-1.899995,"tags":{"button_operated":"yes","crossing":"traffic_signals","highway":"crossing","source":"survey","tactile_paving":"yes","traffic_signals:sound":"no","traffic_signals:vibration":"yes"}},{"type":"node","id":1426125068,"lat":52.4788656,"lon":-1.8995842,"tags":{"amenity":"bicycle_parking","bcc_ref":"58","bicycle_parking":"stands","capacity":"6","check_date":"2023-06-06","covered":"no","name":"Lower Temple Street"}},{"type":"node","id":2388223567,"lat":52.4787705,"lon":-1.8995804,"tags":{"amenity":"bicycle_parking","bcc_ref":"565","bicycle_parking":"stands","capacity":"2","covered":"no"}},{"type":"node","id":2470441580,"lat":52.4782943,"lon":-1.8994607,"tags":{"door":"no","level":"1"}},{"type":"node","id":2470441584,"lat":52.4783437,"lon":-1.8999549,"tags":{"public_transport":"platform","ref":"1b","wheelchair":"yes"}},{"type":"node","id":2470441612,"lat":52.4782836,"lon":-1.899334,"tags":{"bottom":"level_-1","highway":"elevator","level":"1","name":"1b","top":"level_0"}},{"type":"node","id":2471206224,"lat":52.4784711,"lon":-1.8995485,"tags":{"disused:shop":"yes"}},{"type":"node","id":2517583454,"lat":52.47888,"lon":-1.8991504,"tags":{"name":"Burlington Court","office":"yes"}},{"type":"node","id":2517583458,"lat":52.4788167,"lon":-1.8994091,"tags":{"addr:city":"Birmingham","addr:postcode":"B2 4JD","addr:street":"Lower Temple Street","name":"Coast","shop":"clothes"}},{"type":"node","id":2517583460,"lat":52.4788184,"lon":-1.89977,"tags":{"addr:city":"Birmingham","addr:postcode":"B2 4JD","addr:street":"Lower Temple Street","level":"2","name":"Contact Lens Practice","shop":"optician"}},{"type":"node","id":2517583461,"lat":52.4787613,"lon":-1.8997449,"tags":{"addr:city":"Birmingham","addr:postcode":"B2 4JD","addr:street":"Lower Temple Street","amenity":"cafe","brand":"Caff\u00e8 Nero","brand:wikidata":"Q675808","brand:wikipedia":"en:Caff\u00e8 Nero","cuisine":"coffee_shop","fhrs:id":"962704","name":"Caff\u00e8 Nero","takeaway":"yes"}},{"type":"node","id":2517583467,"lat":52.4787612,"lon":-1.8994388,"tags":{"brand":"Ladbrokes","brand:wikidata":"Q1799875","brand:wikipedia":"en:Ladbrokes Coral","name":"Ladbrokes","shop":"bookmaker"}},{"type":"node","id":2517583468,"lat":52.4789321,"lon":-1.8999776,"tags":{"addr:city":"Birmingham","addr:postcode":"B2 4HD","addr:street":"Picadilly Arcade","name":"Finishing Touches","shop":"beauty"}},{"type":"node","id":2517583469,"lat":52.4788255,"lon":-1.9001334,"tags":{"name":"Marco & Benito","shop":"beauty"}},{"type":"node","id":2517583471,"lat":52.4788159,"lon":-1.8997289,"tags":{"name":"Nathan & Co","shop":"pawnbroker"}},{"type":"node","id":2517583473,"lat":52.4789529,"lon":-1.9001164,"tags":{"addr:city":"Birmingham","addr:postcode":"B2 4HD","addr:street":"Picadilly Arcade","name":"Onyx","shop":"jewelry"}},{"type":"node","id":2517583474,"lat":52.4788154,"lon":-1.8999867,"tags":{"name":"Petals of Piccadilly","shop":"florist"}},{"type":"node","id":2517583475,"lat":52.4789076,"lon":-1.9001224,"tags":{"addr:city":"Birmingham","addr:postcode":"B2 4HD","addr:street":"Picadilly Arcade","craft":"shoemaker","name":"Picadilly Cobbler"}},{"type":"node","id":2517583476,"lat":52.4788904,"lon":-1.8999809,"tags":{"addr:city":"Birmingham","addr:postcode":"B2 4HD","addr:street":"Picadilly Arcade","name":"Piccadilly Opticians","shop":"optician"}},{"type":"node","id":2517583481,"lat":52.4788723,"lon":-1.89939,"tags":{"addr:city":"Birmingham","addr:postcode":"B2 4JD","addr:street":"Lower Temple Street","name":"Destination Skin","shop":"beauty"}},{"type":"node","id":2517583484,"lat":52.478853,"lon":-1.8997181,"tags":{"name":"Urban Roots","shop":"hairdresser"}},{"type":"node","id":2517583486,"lat":52.4783444,"lon":-1.8994108,"tags":{"level":"1","shop":"ticket","tickets":"bus"}},{"type":"node","id":2517588464,"lat":52.4787643,"lon":-1.9000618,"tags":{"entrance":"main","source":"survey"}},{"type":"node","id":2526028816,"lat":52.4783672,"lon":-1.8997731,"tags":{"door":"no","level":"1"}},{"type":"node","id":3205042339,"lat":52.4788762,"lon":-1.9001291,"tags":{"addr:city":"Birmingham","addr:postcode":"B2 4HD","addr:street":"Picadilly Arcade","amenity":"cafe","cuisine":"coffee_shop;sandwich","fhrs:id":"1106214","internet_access":"no","name":"Faculty Coffee","opening_hours":"Mo-Fr 07:30-17:30; Sa 09:00-18:00; Su 10:00-16:00","opening_hours:covid19":"Mo-Fr 08:00-18:00; Sa 09:30-18:00; Su 11:00-16:00"}},{"type":"node","id":3616332640,"lat":52.4785939,"lon":-1.899246,"tags":{"name":"Grand Central","public_transport":"stop_position","railway":"tram_stop","source":"survey","tram":"yes"}},{"type":"node","id":3757905387,"lat":52.4783612,"lon":-1.8994072,"tags":{"addr:city":"Birmingham","addr:postcode":"B2 4ND","addr:street":"New Street Station","information":"office","level":"1","name":"Local Travel information","tourism":"information"}},{"type":"node","id":3757918349,"lat":52.4784883,"lon":-1.8999953,"tags":{"door":"yes","entrance":"main","level":"1","name":"New Street Station Stephenson Street Entrance","source":"survey"}},{"type":"node","id":3758952486,"lat":52.4783303,"lon":-1.8995121,"tags":{"addr:city":"Birmingham","addr:housename":"Grand Central","addr:postcode":"B2 4BF","addr:street":"Stephenson Place","addr:unit":"11","amenity":"restaurant","fhrs:id":"1540139","layer":"1","level":"2","name":"Karen's Diner","opening_hours":"Tu-Su 12:00-15:00,05:00-22:00; Mo off","source:addr":"FHRS Open Data"}},{"type":"node","id":3758952492,"lat":52.4783178,"lon":-1.8993917,"tags":{"addr:city":"Birmingham","addr:housename":"Grand Central","addr:postcode":"B2 4BF","addr:street":"Stephenson Place","addr:unit":"12","amenity":"cafe","fhrs:id":"1157105","layer":"1","level":"2","name":"Kitty Cafe","opening_hours":"Su-Fr 10:00-18:00; Sa 10:00-20:00","source:addr":"FHRS Open Data","theme":"cat","website":"https:\/\/www.kittycafe.co.uk\/"}},{"type":"node","id":3761531784,"lat":52.4783238,"lon":-1.8996382,"tags":{"door":"no","level":"2"}},{"type":"node","id":3761531789,"lat":52.4783645,"lon":-1.8996037,"tags":{"bottom":"level_0","highway":"elevator","ref":"Grand Central","top":"level_1"}},{"type":"node","id":3761543503,"lat":52.4783172,"lon":-1.8996646,"tags":{"door":"no","level":"0"}},{"type":"node","id":3762903533,"lat":52.478307,"lon":-1.8996805,"tags":{"amenity":"toilets","layer":"1","level":"2","source":"survey"}},{"type":"node","id":3763940176,"lat":52.4783055,"lon":-1.8997477,"tags":{"door":"yes","level":"2"}},{"type":"node","id":3763940182,"lat":52.4784847,"lon":-1.8994185,"tags":{"door":"yes","entrance":"main","level":"1"}},{"type":"node","id":3957134910,"lat":52.4782836,"lon":-1.899334,"tags":{"bottom":"level_-1","highway":"elevator","level":"0","name":"1b","top":"level_0"}},{"type":"node","id":4204911695,"lat":52.47854,"lon":-1.8991337,"tags":{"man_made":"surveillance","source":"survey"}},{"type":"node","id":4204911705,"lat":52.4786082,"lon":-1.8999601,"tags":{"button_operated":"yes","crossing":"traffic_signals","highway":"crossing","source":"survey","tactile_paving":"yes","traffic_signals:sound":"no","traffic_signals:vibration":"yes"}},{"type":"node","id":4204911706,"lat":52.4786257,"lon":-1.8992366,"tags":{"name":"Grand Central","public_transport":"stop_position","railway":"tram_stop","source":"survey","tram":"yes"}},{"type":"node","id":4204911708,"lat":52.4786697,"lon":-1.8996371,"tags":{"railway":"tram_crossing"}},{"type":"node","id":4204911709,"lat":52.4786707,"lon":-1.8995062,"tags":{"man_made":"surveillance","source":"survey"}},{"type":"node","id":4204911710,"lat":52.4786723,"lon":-1.8999947,"tags":{"railway":"tram_crossing"}},{"type":"node","id":4204911711,"lat":52.4787021,"lon":-1.8999934,"tags":{"railway":"tram_crossing"}},{"type":"node","id":4303618075,"lat":52.4786399,"lon":-1.8995819,"tags":{"button_operated":"yes","crossing":"traffic_signals","highway":"crossing","ref":"E0127","source":"survey","tactile_paving":"yes","traffic_signals:sound":"yes","traffic_signals:vibration":"yes"}},{"type":"node","id":4592379290,"lat":52.4787013,"lon":-1.8995877,"tags":{"emergency":"fire_hydrant","fire_hydrant:diameter:signed":"no","fire_hydrant:position":"sidewalk","fire_hydrant:type":"underground","operator":"WMFS","source":"survey"}},{"type":"node","id":4738022549,"lat":52.4787352,"lon":-1.899581,"tags":{"man_made":"street_cabinet","source":"survey","utility":"telecom"}},{"type":"node","id":4738022550,"lat":52.478727,"lon":-1.8995843,"tags":{"man_made":"street_cabinet","source":"survey","utility":"telecom"}},{"type":"node","id":4738022551,"lat":52.4787172,"lon":-1.899587,"tags":{"man_made":"street_cabinet","operator":"bcc","ref":"0127","street_cabinet":"traffic_signals"}},{"type":"node","id":4738022552,"lat":52.4787095,"lon":-1.8997067,"tags":{"emergency":"fire_hydrant","fire_hydrant:diameter:signed":"no","fire_hydrant:position":"sidewalk","fire_hydrant:type":"underground","operator":"WMFS","source":"survey"}},{"type":"node","id":5136932293,"lat":52.478787,"lon":-1.8999019,"tags":{"addr:city":"Birmingham","addr:postcode":"B2 4BJ","addr:street":"Stephenson Street","alt_name":"Be At One New Street Birmingham;Be At One New Street;Be At One Bar","amenity":"bar","brand":"Be At One","brand:wikidata":"Q110016786","fhrs:id":"976205","name":"Be At One","operator":"Stonegate","operator:wikidata":"Q7619176","website":"https:\/\/www.beatone.co.uk\/new-street-birmingham","wheelchair":"no"}},{"type":"node","id":7135760392,"lat":52.478657,"lon":-1.8998525,"tags":{"railway":"tram_level_crossing"}},{"type":"node","id":11036222713,"lat":52.4786126,"lon":-1.8992387,"tags":{"name":"Grand Central","railway":"tram_stop","source":"survey","tram":"yes"}},{"type":"node","id":12160803094,"lat":52.4784481,"lon":-1.8998958,"tags":{"information":"map","tourism":"information"}},{"type":"node","id":12428728032,"lat":52.4786356,"lon":-1.8996464,"tags":{"railway":"tram_crossing"}}]}