{"version":0.6,"generator":"Overpass API 0.7.62.5 1bd436f1","osm3s":{"timestamp_osm_base":"2025-03-12T11:58:39Z","copyright":"The data included in this document is from www.openstreetmap.org. The data is made available under ODbL."},"elements":[{"type":"node","id":312743215,"lat":52.4784296,"lon":-1.9007037,"tags":{"highway":"crossing","source":"survey"}},{"type":"node","id":312743229,"lat":52.47836,"lon":-1.900684,"tags":{"highway":"mini_roundabout"}},{"type":"node","id":313201311,"lat":52.4784708,"lon":-1.9006855,"tags":{"amenity":"telephone","atm":"yes","booth":"K6","colour":"red","source":"survey"}},{"type":"node","id":355921342,"lat":52.4786847,"lon":-1.9011826,"tags":{"internet_access":"wlan","operator":"BT","service":"Birmingham FIZ","source":"survey"}},{"type":"node","id":558617150,"lat":52.4784212,"lon":-1.9006183,"tags":{"man_made":"surveillance","source":"survey"}},{"type":"node","id":977366268,"lat":52.4783695,"lon":-1.9003664,"tags":{"door":"yes","entrance":"exit","level":"1"}},{"type":"node","id":1201617949,"lat":52.4788687,"lon":-1.9009378,"tags":{"addr:city":"Birmingham","addr:housenumber":"12","addr:postcode":"B2 4BG","addr:street":"Ethel Street","disused:shop":"yes"}},{"type":"node","id":2517583436,"lat":52.4789209,"lon":-1.9012681,"tags":{"note":"Vacant shop"}},{"type":"node","id":2517583459,"lat":52.4788653,"lon":-1.9005063,"tags":{"amenity":"parking","name":"Colonade Carpark"}},{"type":"node","id":2517583462,"lat":52.478853,"lon":-1.9003473,"tags":{"leisure":"sports_centre","name":"Fitness4less"}},{"type":"node","id":2517583466,"lat":52.478903,"lon":-1.9009314,"tags":{"brand":"H&T Pawnbrokers","brand:wikidata":"Q105672451","name":"H&T Pawnbrokers","opening_hours":"Mo-Sa 09:00-17:00","shop":"pawnbroker"}},{"type":"node","id":3205042340,"lat":52.4785748,"lon":-1.9007499,"tags":{"amenity":"fast_food","cuisine":"pizza","name":"Joey's Pizzeria"}},{"type":"node","id":3754517407,"lat":52.4787195,"lon":-1.9005699,"tags":{"railway":"switch"}},{"type":"node","id":3754517408,"lat":52.4787234,"lon":-1.9003193,"tags":{"railway":"switch"}},{"type":"node","id":3763977581,"lat":52.4783407,"lon":-1.9009471,"tags":{"barrier":"lift_gate","source":"visual survey;estimate"}},{"type":"node","id":3763977584,"lat":52.478478,"lon":-1.9008695,"tags":{"barrier":"lift_gate","source":"visual survey;estimate"}},{"type":"node","id":3765753723,"lat":52.4783818,"lon":-1.9003281,"tags":{"man_made":"street_cabinet","operator":"bcc","ref":"E0129","street_cabinet":"traffic_signals"}},{"type":"node","id":3796478570,"lat":52.4784052,"lon":-1.9002551,"tags":{"man_made":"street_cabinet","operator":"bcc","ref":"E0129","street_cabinet":"traffic_signals"}},{"type":"node","id":4738022553,"lat":52.4783145,"lon":-1.9008873,"tags":{"amenity":"grit_bin","source":"survey"}},{"type":"node","id":5136932582,"lat":52.4783639,"lon":-1.9002344,"tags":{"level":"0"}},{"type":"node","id":5136932583,"lat":52.4783623,"lon":-1.9003612,"tags":{"level":"1"}},{"type":"node","id":5181039058,"lat":52.4783998,"lon":-1.9005082,"tags":{"crossing":"traffic_signals","crossing:island":"no","crossing_ref":"pelican","highway":"crossing","ref":"E0129","source":"survey","source:type":"BCC_CycleData"}},{"type":"node","id":6957345558,"lat":52.4787568,"lon":-1.9011817,"tags":{"highway":"stop","source":"survey"}},{"type":"node","id":6957345569,"lat":52.4787893,"lon":-1.9010992,"tags":{"railway":"tram_crossing"}},{"type":"node","id":7055332368,"lat":52.4788058,"lon":-1.9012054,"tags":{"railway":"signal","source":"estimate"}},{"type":"node","id":7055332369,"lat":52.4787658,"lon":-1.9012192,"tags":{"railway":"signal","source":"estimate"}},{"type":"node","id":7135760393,"lat":52.478764,"lon":-1.9011825,"tags":{"railway":"tram_level_crossing"}},{"type":"node","id":11751717228,"lat":52.4788829,"lon":-1.9006829,"tags":{"addr:housenumber":"23","addr:postcode":"B2 4BH","addr:street":"Stephenson Street","contact:twitter":"https:\/\/twitter.com\/hmicfrs","name":"HM Inspectorate of Constabulary and Fire & Rescue Services","office":"government","short_name":"HMICFRS","website":"https:\/\/hmicfrs.justiceinspectorates.gov.uk\/","wikidata":"Q5732315","wikipedia":"en:His Majesty's Inspectorate of Constabulary and Fire & Rescue Services"}}]}