{"version":0.6,"generator":"Overpass API 0.7.62.5 1bd436f1","osm3s":{"timestamp_osm_base":"2025-03-12T11:54:30Z","copyright":"The data included in this document is from www.openstreetmap.org. The data is made available under ODbL."},"elements":[{"type":"node","id":309434190,"lat":52.4823286,"lon":-1.9006886,"tags":{"amenity":"post_box","brand":"Royal Mail","brand:wikidata":"Q638098","brand:wikipedia":"en:Royal Mail","collection_plate":"none","collection_times":"Mo-Fr 18:30; Sa 12:00","description":"This Postbox is for pre-paid parcels bought online, barcode returns and Business franked mail.","last_checked":"2021-07-23","note":"no sign of B3 174 which was indicated here.","old_ref":"B3 9000","operator":"Royal Mail","operator:wikidata":"Q638098","post_box:type":"meter","ref":"B3 9000P","royal_cypher":"EIIR","royal_cypher:wikidata":"Q33102113","source":"survey"}},{"type":"node","id":312285158,"lat":52.4820214,"lon":-1.9002284,"tags":{"addr:city":"Birmingham","addr:housenumber":"16","addr:postcode":"B3 2NP","addr:street":"Church Street","amenity":"restaurant","brand":"Fuller's","brand:wikidata":"Q5253950","fhrs:id":"1212772","name":"The Roebuck","source":"survey","website":"https:\/\/www.roebuckbirmingham.co.uk\/"}},{"type":"node","id":1109050753,"lat":52.4820682,"lon":-1.900889,"tags":{"entrance":"yes","source":"Visual survey; estimate"}},{"type":"node","id":1109050792,"lat":52.4820094,"lon":-1.9008069,"tags":{"entrance":"yes","source":"Visual survey; estimate"}},{"type":"node","id":2431285839,"lat":52.4821889,"lon":-1.9004267,"tags":{"addr:city":"Birmingham","addr:postcode":"B3 2NP","addr:street":"Church Street","amenity":"cafe","fhrs:id":"720187","internet_access":"wlan","internet_access:fee":"no","name":"Home Is Where","toilets:wheelchair":"no","wheelchair":"limited"}},{"type":"node","id":2526028741,"lat":52.4821547,"lon":-1.9011982,"tags":{"name":"Anthony Collins","office":"lawyer"}},{"type":"node","id":2526028742,"lat":52.4822091,"lon":-1.9005569,"tags":{"amenity":"training","name":"Aspiration"}},{"type":"node","id":2526028758,"lat":52.4822577,"lon":-1.9010196,"tags":{"name":"Clarke Willmott","office":"lawyer"}},{"type":"node","id":2526028822,"lat":52.4821508,"lon":-1.9003846,"tags":{"name":"Clements Church","shop":"clothes"}},{"type":"node","id":3764046059,"lat":52.4822969,"lon":-1.9007309,"tags":{"man_made":"street_cabinet","operator":"Orange","utility":"telecom"}},{"type":"node","id":4038486128,"lat":52.4822755,"lon":-1.9005758,"tags":{"name":"Colmore Business District","place":"locality","source":"local knowledge"}},{"type":"node","id":4490388064,"lat":52.4823396,"lon":-1.9005663,"tags":{"highway":"give_way","source":"survey"}},{"type":"node","id":5609621059,"lat":52.4823056,"lon":-1.9006142,"tags":{"amenity":"bicycle_parking","bicycle_parking":"stands","capacity":"10","source":"bcc"}},{"type":"node","id":5620478124,"lat":52.4820913,"lon":-1.9007957,"tags":{"addr:city":"Birmingham","addr:postcode":"B3 2HJ","addr:street":"Edmund Street","amenity":"restaurant","fhrs:id":"1126768","name":"Pinchos Tapas Bar"}},{"type":"node","id":5620478125,"lat":52.4822608,"lon":-1.9007836,"tags":{"amenity":"bicycle_parking","capacity":"10","operator":"bcc"}},{"type":"node","id":7142734486,"lat":52.4822425,"lon":-1.9004838,"tags":{"addr:city":"Birmingham","addr:country":"GB","addr:housenumber":"33","addr:postcode":"B3 2NP","addr:street":"Church Street","amenity":"restaurant","cuisine":"asian","email":"hello@tigerbitespig.co.uk","fhrs:id":"1060150","name":"Tiger Bites Pig","opening_hours":"Mo-Sa 12:00-21:00","phone":"+44 7378 273919","website":"https:\/\/www.tigerbitespig.co.uk\/"}},{"type":"node","id":12537015566,"lat":52.4823452,"lon":-1.9005574,"tags":{"crossing":"unmarked","crossing:island":"no","crossing:markings":"no","highway":"crossing","tactile_paving":"no"}}]}