{"version":0.6,"generator":"Overpass API 0.7.62.5 1bd436f1","osm3s":{"timestamp_osm_base":"2025-03-11T16:19:11Z","copyright":"The data included in this document is from www.openstreetmap.org. The data is made available under ODbL."},"elements":[{"type":"node","id":1440648224,"lat":52.4979129,"lon":13.4172559,"tags":{"barrier":"gate","bicycle":"permissive","foot":"permissive"}},{"type":"node","id":1440648447,"lat":52.4981563,"lon":13.417384,"tags":{"barrier":"gate","bicycle":"yes","foot":"yes"}},{"type":"node","id":4357261292,"lat":52.4980283,"lon":13.4174141,"tags":{"addr:city":"Berlin","addr:housenumber":"37","addr:postcode":"10999","addr:street":"Admiralstra\u00dfe"}},{"type":"node","id":4435796782,"lat":52.4981664,"lon":13.4174272,"tags":{"addr:city":"Berlin","addr:housenumber":"36","addr:street":"Admiralstra\u00dfe","amenity":"restaurant","contact:website":"http:\/\/www.doyum-restaurant.de\/#home-slider","cuisine":"turkish","indoor_seating":"yes","name":"Doyum Restaurant","opening_hours":"07:00-24:00","outdoor_seating":"yes","wheelchair":"yes"}},{"type":"node","id":5546461821,"lat":52.4982886,"lon":13.4182591,"tags":{"addr:postcode":"10999","amenity":"fast_food","check_date":"2024-08-27","cuisine":"kebab","indoor_seating":"yes","name":"Mis Kebap","outdoor_seating":"no"}},{"type":"node","id":5546464025,"lat":52.4982658,"lon":13.4180046,"tags":{"addr:postcode":"10999","female:signed":"no","male:signed":"no","name":"Coiffeur Yavuz","opening_hours":"Mo-Sa 09:00-20:00","phone":"+49 30 614 99 82","shop":"hairdresser","website":"http:\/\/www.berber-yavuz.de"}},{"type":"node","id":6888684423,"lat":52.498304,"lon":13.4172149,"tags":{"access":"yes","amenity":"bicycle_parking","bicycle_parking":"stands","capacity":"4","check_date:capacity":"2024-08-27","covered":"no","fee":"no"}},{"type":"node","id":8078037435,"lat":52.4978739,"lon":13.4172235,"tags":{"access":"private","amenity":"parking_entrance","entrance":"yes","maxheight":"below_default","parking":"underground"}},{"type":"node","id":8895430793,"lat":52.4984648,"lon":13.4182809,"tags":{"leaf_cycle":"deciduous","leaf_type":"broadleaved","natural":"tree"}},{"type":"node","id":9903355320,"lat":52.498461,"lon":13.4180012,"tags":{"addr:city":"Berlin","addr:housenumber":"1","addr:postcode":"10999","addr:street":"Kottbusser Stra\u00dfe","amenity":"restaurant","contact:instagram":"ba.baleison","cuisine":"turkish","indoor_seating":"yes","name":"Babaleison","outdoor_seating":"yes","website":"https:\/\/babaleison.com\/"}},{"type":"node","id":11249094039,"lat":52.4981151,"lon":13.4172077,"tags":{"artwork_type":"graffiti","covered":"yes","image":"https:\/\/photos.app.goo.gl\/pMZF33g9SCqVV1cV8","tourism":"artwork"}},{"type":"node","id":11800128305,"lat":52.4983601,"lon":13.4180741,"tags":{"addr:housenumber":"2","addr:street":"Kottbusser Stra\u00dfe","check_date":"2024-04-07","level":"0","name":"Reiseb\u00fcro \u00d6zdemir","opening_hours":"Mo-Fr 10:00-18:00; Sa 10:00-13:00","operator":"Mete Sener","phone":"+49 30 61609752; +49 172 3906737","shop":"travel_agency","wheelchair":"yes"}},{"type":"node","id":12107006178,"lat":52.4984426,"lon":13.4173737,"tags":{"highway":"street_lamp"}},{"type":"node","id":12107006180,"lat":52.4984973,"lon":13.417205,"tags":{"addr:floor":"0","emergency":"fire_hydrant","fire_hydrant:position":"sidewalk","fire_hydrant:type":"underground","level":"0","source":"survey","water_source":"main"}}]}