{"version":0.6,"generator":"Overpass API 0.7.62.5 1bd436f1","osm3s":{"timestamp_osm_base":"2025-03-12T11:57:36Z","copyright":"The data included in this document is from www.openstreetmap.org. The data is made available under ODbL."},"elements":[{"type":"node","id":312619517,"lat":52.4823209,"lon":-1.8945401,"tags":{"crossing":"traffic_signals","crossing:island":"no","crossing_ref":"pelican","highway":"crossing","ref":"E0141","source":"survey","tactile_paving":"yes"}},{"type":"node","id":312619557,"lat":52.4821713,"lon":-1.8944181,"tags":{"PMSA_ref":"WMbiBIxx247","artist_name":"Bruce Williams","historic":"memorial","memorial":"sculpture","name":"Tony Hancock","operator":"Birmingham City Council","source":"survey;website","start_date":"1996","subject:wikidata":"Q1365832","subject:wikipedia":"en:Tony Hancock","tourism":"artwork","url":"http:\/\/www.birmingham.gov.uk\/hancock"}},{"type":"node","id":312628818,"lat":52.4818898,"lon":-1.8942223,"tags":{"amenity":"telephone","booth":"K6","check_date":"2024-08-31","colour":"red","note":"kiosk converted into atm with phone on outside","source":"survey"}},{"type":"node","id":355917482,"lat":52.4821024,"lon":-1.894462,"tags":{"man_made":"surveillance","source":"survey"}},{"type":"node","id":355917483,"lat":52.4822088,"lon":-1.8942396,"tags":{"internet_access":"wlan","operator":"BT","service":"Birmingham FIZ","source":"survey"}},{"type":"node","id":863884758,"lat":52.4817471,"lon":-1.8941661,"tags":{"entrance":"main"}},{"type":"node","id":1102124924,"lat":52.4817727,"lon":-1.8945748,"tags":{"addr:city":"Birmingham","addr:street":"Corporation Street","note":"Vacant store","source":"visual survey & estimate"}},{"type":"node","id":1830521089,"lat":52.481827,"lon":-1.8937088,"tags":{"bus":"yes","highway":"bus_stop","name":"PQ14","naptan:AtcoCode":"43000208404","naptan:Bearing":"NW","naptan:BusStopType":"MKD","naptan:CommonName":"Old Square","naptan:Indicator":"Stop PQ14","naptan:NaptanCode":"nwmwgpjt","naptan:PlusbusZoneRef":"BHAMNWS","naptan:Status":"ACT","naptan:StopType":"BCT","naptan:Street":"THE PRIORY QUEENSWAY","naptan:Towards":"xxx","public_transport":"platform","route_ref":"14","shelter":"yes","source":"WMCA"}},{"type":"node","id":1988185797,"lat":52.4822361,"lon":-1.8942315,"tags":{"amenity":"bicycle_parking","bcc_ref":"551","bicycle_parking":"stands","capacity":"8","covered":"no","name":"Old Square outside Tesco"}},{"type":"node","id":2063586075,"lat":52.4822791,"lon":-1.8940562,"tags":{"amenity":"atm","check_date":"2023-06-24"}},{"type":"node","id":2063587963,"lat":52.4817987,"lon":-1.8945733,"tags":{"addr:city":"Birmingham","addr:housenumber":"120-122","addr:postcode":"B4 6SX","addr:street":"Corporation Street","addr:suburb":"Ladywood","amenity":"fast_food","fhrs:id":"604776","name":"Big John's City","source:addr":"FHRS Open Data"}},{"type":"node","id":2453125734,"lat":52.4819377,"lon":-1.8938673,"tags":{"button_operated":"yes","crossing":"traffic_signals","crossing:island":"no","highway":"crossing","ref":"E0136","tactile_paving":"yes","traffic_signals:sound":"yes","traffic_signals:vibration":"yes"}},{"type":"node","id":2519320985,"lat":52.482117,"lon":-1.8937431,"tags":{"brand":"Warhammer","brand:wikidata":"Q587270","brand:wikipedia":"en:Games Workshop","name":"Warhammer","shop":"games"}},{"type":"node","id":2519321007,"lat":52.4817577,"lon":-1.8939876,"tags":{"addr:city":"Birmingham","addr:housenumber":"27","addr:postcode":"B4 7LL","addr:street":"The Priory Queensway","amenity":"pub","fhrs:id":"1368261","name":"The Grey Lantern"}},{"type":"node","id":2519321028,"lat":52.4817172,"lon":-1.8937284,"tags":{"note":"Vacant shop, used to be Argos","shop":"vacant"}},{"type":"node","id":2519321032,"lat":52.4822596,"lon":-1.8940667,"tags":{"level":"-1","note":"Vacant shop"}},{"type":"node","id":3818484218,"lat":52.481839,"lon":-1.8940623,"tags":{"man_made":"street_cabinet","source":"survey"}},{"type":"node","id":4546903121,"lat":52.4822796,"lon":-1.894231,"tags":{"emergency":"fire_hydrant","fire_hydrant:diameter":"150","fire_hydrant:type":"underground","operator":"WMFS","source":"survey"}},{"type":"node","id":4567172218,"lat":52.4821089,"lon":-1.8938776,"tags":{"man_made":"street_cabinet","operator":"bcc","ref":"E0143","source":"survey","street_cabinet":"traffic_signals"}},{"type":"node","id":4567172219,"lat":52.4818369,"lon":-1.8939292,"tags":{"emergency":"fire_hydrant","fire_hydrant:type":"underground","operator":"WMFS","source":"survey"}},{"type":"node","id":4617826414,"lat":52.4821123,"lon":-1.8939155,"tags":{"emergency":"fire_hydrant","fire_hydrant:diameter":"150","fire_hydrant:type":"underground","operator":"WMFS","position:distance":"8","source":"survey"}},{"type":"node","id":4617826415,"lat":52.4821052,"lon":-1.8938929,"tags":{"emergency":"fire_hydrant","fire_hydrant:diameter":"150","fire_hydrant:type":"underground","operator":"WMFS","position:distance":"8","source":"survey"}},{"type":"node","id":4648438003,"lat":52.482075,"lon":-1.894005,"tags":{"amenity":"ticket_validator","operator":"Transport for West Midlands","operator:short":"TfWM","operator:wikidata":"Q7985947","payment:swift_card":"yes"}},{"type":"node","id":4720095992,"lat":52.4818012,"lon":-1.8935418,"tags":{"age":"semi-mature","constituency":"City Centre","genus":"Platanus","height":"15","height:range":"14 to 14.99m","leaf_cycle":"deciduous","leaf_type":"broadleaved","natural":"tree","plot_number":"100016","ref:usrn":"2702381","site_name":"THE PRIORY QUEENSWAY","source":"bcc_dec_2016","species":"Platanus x acerifolia","tree_form":"natural","ward":"Ladywood"}},{"type":"node","id":4720095993,"lat":52.4822052,"lon":-1.8944958,"tags":{"age":"early-mature","constituency":"City Centre","genus":"Tilia","genus:wikidata":"Q127849","height":"8","height:range":"7 to 7.99m","leaf_cycle":"deciduous","leaf_type":"broadleaved","natural":"tree","plot_number":"100011","ref:usrn":"2735469","site_name":"OLD SQUARE","source":"bcc_dec_2016","tree_form":"natural","ward":"Ladywood"}},{"type":"node","id":4720095994,"lat":52.4820462,"lon":-1.8945078,"tags":{"age":"early-mature","constituency":"City Centre","genus":"Tilia","genus:wikidata":"Q127849","height":"8","height:range":"7 to 7.99m","leaf_cycle":"deciduous","leaf_type":"broadleaved","natural":"tree","plot_number":"100007","ref:usrn":"2735469","site_name":"OLD SQUARE","source":"bcc_dec_2016","tree_form":"natural","ward":"Ladywood"}},{"type":"node","id":4720095997,"lat":52.4822492,"lon":-1.8945698,"tags":{"age":"early-mature","constituency":"City Centre","genus":"Tilia","genus:wikidata":"Q127849","height":"8","height:range":"7 to 7.99m","leaf_cycle":"deciduous","leaf_type":"broadleaved","natural":"tree","plot_number":"100012","ref:usrn":"2735469","site_name":"OLD SQUARE","source":"bcc_dec_2016","tree_form":"natural","ward":"Ladywood"}},{"type":"node","id":4720095999,"lat":52.4820732,"lon":-1.8945718,"tags":{"age":"early-mature","constituency":"City Centre","genus":"Tilia","genus:wikidata":"Q127849","height":"7","height:range":"6 to 6.99m","leaf_cycle":"deciduous","leaf_type":"broadleaved","natural":"tree","plot_number":"100006","ref:usrn":"2735469","site_name":"OLD SQUARE","source":"bcc_dec_2016","tree_form":"natural","ward":"Ladywood"}},{"type":"node","id":4720096000,"lat":52.4819222,"lon":-1.8940248,"tags":{"age":"semi-mature","constituency":"City Centre","genus":"Platanus","height":"15","height:range":"14 to 14.99m","leaf_cycle":"deciduous","leaf_type":"broadleaved","natural":"tree","plot_number":"100018","ref:usrn":"2702381","site_name":"THE PRIORY QUEENSWAY","source":"bcc_dec_2016","species":"Platanus x acerifolia","tree_form":"natural","ward":"Ladywood"}},{"type":"node","id":4720096001,"lat":52.4820872,"lon":-1.8943148,"tags":{"age":"early-mature","constituency":"City Centre","genus":"Tilia","genus:wikidata":"Q127849","height":"10","height:range":"9 to 9.99m","leaf_cycle":"deciduous","leaf_type":"broadleaved","natural":"tree","plot_number":"100009","ref:usrn":"2735469","site_name":"OLD SQUARE","source":"bcc_dec_2016","tree_form":"natural","ward":"Ladywood"}},{"type":"node","id":4720096002,"lat":52.4820238,"lon":-1.893917,"tags":{"age":"semi-mature","constituency":"City Centre","genus":"Platanus","height":"15","height:range":"14 to 14.99m","leaf_cycle":"deciduous","leaf_type":"broadleaved","natural":"tree","plot_number":"100004","ref:usrn":"2702381","site_name":"THE PRIORY QUEENSWAY","source":"bcc_dec_2016","species":"Platanus x acerifolia","tree_form":"natural","ward":"Ladywood"}},{"type":"node","id":4720096003,"lat":52.4818752,"lon":-1.8938308,"tags":{"age":"semi-mature","constituency":"City Centre","genus":"Platanus","height":"15","height:range":"14 to 14.99m","leaf_cycle":"deciduous","leaf_type":"broadleaved","natural":"tree","plot_number":"100017","ref:usrn":"2702381","site_name":"THE PRIORY QUEENSWAY","source":"bcc_dec_2016","species":"Platanus x acerifolia","tree_form":"natural","ward":"Ladywood"}},{"type":"node","id":4720096004,"lat":52.4820292,"lon":-1.8943708,"tags":{"age":"early-mature","constituency":"City Centre","genus":"Tilia","genus:wikidata":"Q127849","height":"10","height:range":"9 to 9.99m","leaf_cycle":"deciduous","leaf_type":"broadleaved","natural":"tree","plot_number":"100008","ref:usrn":"2735469","site_name":"OLD SQUARE","source":"bcc_dec_2016","tree_form":"natural","ward":"Ladywood"}},{"type":"node","id":4720096005,"lat":52.4821472,"lon":-1.8943788,"tags":{"age":"early-mature","constituency":"City Centre","genus":"Tilia","genus:wikidata":"Q127849","height":"8","height:range":"7 to 7.99m","leaf_cycle":"deciduous","leaf_type":"broadleaved","natural":"tree","plot_number":"100010","ref:usrn":"2735469","site_name":"OLD SQUARE","source":"bcc_dec_2016","tree_form":"natural","ward":"Ladywood"}},{"type":"node","id":4720096006,"lat":52.4820062,"lon":-1.8937608,"tags":{"age":"semi-mature","constituency":"City Centre","genus":"Platanus","height":"14","height:range":"13 to 13.99m","leaf_cycle":"deciduous","leaf_type":"broadleaved","natural":"tree","plot_number":"100005","ref:usrn":"2702381","site_name":"THE PRIORY QUEENSWAY","source":"bcc_dec_2016","species":"Platanus x acerifolia","tree_form":"natural","ward":"Ladywood"}},{"type":"node","id":4720096007,"lat":52.4819182,"lon":-1.8942538,"tags":{"age":"semi-mature","constituency":"City Centre","genus":"Platanus","height":"15","height:range":"14 to 14.99m","leaf_cycle":"deciduous","leaf_type":"broadleaved","natural":"tree","plot_number":"100020","ref:usrn":"2702381","site_name":"THE PRIORY QUEENSWAY","source":"bcc_dec_2016","species":"Platanus x acerifolia","tree_form":"natural","ward":"Ladywood"}},{"type":"node","id":4720096008,"lat":52.4819272,"lon":-1.8941448,"tags":{"age":"semi-mature","constituency":"City Centre","genus":"Platanus","height":"15","height:range":"14 to 14.99m","leaf_cycle":"deciduous","leaf_type":"broadleaved","natural":"tree","plot_number":"100019","ref:usrn":"2702381","site_name":"THE PRIORY QUEENSWAY","source":"bcc_dec_2016","species":"Platanus x acerifolia","tree_form":"natural","ward":"Ladywood"}},{"type":"node","id":4720096009,"lat":52.4820845,"lon":-1.8941156,"tags":{"age":"semi-mature","constituency":"City Centre","genus":"Platanus","height":"15","height:range":"14 to 14.99m","leaf_cycle":"deciduous","leaf_type":"broadleaved","natural":"tree","plot_number":"100003","ref:usrn":"2702381","site_name":"THE PRIORY QUEENSWAY","source":"bcc_dec_2016","species":"Platanus x acerifolia","tree_form":"natural","ward":"Ladywood"}},{"type":"node","id":4815879301,"lat":52.4818221,"lon":-1.8935555,"tags":{"bus":"yes","highway":"bus_stop","name":"PL","naptan:AtcoCode":"43000208408","naptan:Bearing":"W","naptan:BusStopType":"MKD","naptan:CommonName":"Old Square","naptan:Indicator":"Stop PL","naptan:NaptanCode":"nwmajgwg","naptan:Status":"ACT","naptan:StopType":"BCT","naptan:Street":"THE PRIORY QUEENSWAY","public_transport":"platform","shelter":"yes","source":"WMCA"}},{"type":"node","id":8322606364,"lat":52.481913,"lon":-1.894362,"tags":{"amenity":"bicycle_parking","bicycle_parking":"stands","capacity":"12","covered":"no","fee":"no"}},{"type":"node","id":8863008429,"lat":52.4820411,"lon":-1.8940553,"tags":{"amenity":"bicycle_repair_station","source":"survey"}},{"type":"node","id":8863008430,"lat":52.482077,"lon":-1.8940714,"tags":{"access":"customers","amenity":"parking","operator":"Voi","parking":"e-scooter","source":"survey"}},{"type":"node","id":8863008431,"lat":52.4820729,"lon":-1.8940365,"tags":{"amenity":"atm","source":"survey"}},{"type":"node","id":10154881931,"lat":52.4817332,"lon":-1.8946213,"tags":{"access":"yes","amenity":"public_bookcase","books":"adults;adults, children, cookery","capacity":"84","fixme":"Freeform tag `books` used, to be doublechecked","indoor":"yes","name":"Advance Credit Union","nobrand":"yes","operator":"Advance Credit Union","panoramax":"751daf1b-fed4-441a-9450-394265485d09","panoramax:0":"c4260d20-fdc8-4f58-b118-fe14a354aac1","start_date":"2022-11-02","website":"https:\/\/www.advancecu.org.uk\/bookcase\/"}},{"type":"node","id":12004434598,"lat":52.482068,"lon":-1.8935618,"tags":{"name":"Shelter","office":"charity"}},{"type":"node","id":12004434599,"lat":52.4822591,"lon":-1.8940285,"tags":{"addr:city":"Birmingham","addr:housename":"Tesco Express Maple House","addr:housenumber":"150","addr:postcode":"B4 6TB","addr:street":"Corporation Street","addr:suburb":"Ladywood","brand":"Tesco Express","brand:wikidata":"Q98456772","brand:wikipedia":"en:Tesco","building":"yes","building:levels":"5","contact:website":"https:\/\/www.tesco.com\/store-locator\/birmingham\/rsvp-bar-old-square","fhrs:id":"602006","name":"Tesco Express","shop":"convenience","source":"visual survey; bing","source:addr":"FHRS Open Data"}},{"type":"node","id":12004434600,"lat":52.4821456,"lon":-1.8938246,"tags":{"name":"Kings Barbers","shop":"hairdresser"}},{"type":"node","id":12004434601,"lat":52.4819757,"lon":-1.8935886,"tags":{"advertising":"totem"}},{"type":"node","id":12004434602,"lat":52.4819892,"lon":-1.893655,"tags":{"access":"yes","advertising":"totem","amenity":"telephone","defibrillator:location":"Attached to an advertising totem and phone booth.","emergency":"defibrillator","indoor":"no","opening_hours":"24\/7","operator":"JCDecaux","ref:GB:the_circuit":"AD8786B8-DDD9-4919-9200-B04F012A05B5","source":"survey"}}]}