{"version":0.6,"generator":"Overpass API 0.7.62.5 1bd436f1","osm3s":{"timestamp_osm_base":"2025-03-12T11:56:32Z","copyright":"The data included in this document is from www.openstreetmap.org. The data is made available under ODbL."},"elements":[{"type":"node","id":621222824,"lat":52.4812506,"lon":-1.9019578,"tags":{"addr:city":"Birmingham","addr:housenumber":"12-22","addr:postcode":"B3 3LX","addr:street":"Newhall Street","amenity":"restaurant","cuisine":"indian","name":"Asha's","source":"survey","url":"http:\/\/www.ashasrestaurants.com\/"}},{"type":"node","id":1458099245,"lat":52.4816009,"lon":-1.9022112,"tags":{"amenity":"motorcycle_parking","bcc_ref":"266","covered":"no","shelter":"no"}},{"type":"node","id":2526028749,"lat":52.4815638,"lon":-1.9016518,"tags":{"addr:city":"Birmingham","addr:housenumber":"103","addr:postcode":"B3 2HZ","addr:street":"Edmund Street","amenity":"restaurant","fhrs:id":"777580","name":"Bushwackers"}},{"type":"node","id":2526028779,"lat":52.4811801,"lon":-1.9017909,"tags":{"amenity":"cafe","brand":"Coffee#1","brand:wikidata":"Q22032058","cuisine":"coffee_shop","name":"Coffee#1","survey:date":"2021-03-16","takeaway":"yes"}},{"type":"node","id":3775130977,"lat":52.4811967,"lon":-1.9014612,"tags":{"amenity":"vending_machine","source":"survey","vending":"parking_tickets"}},{"type":"node","id":4541590495,"lat":52.4814832,"lon":-1.9018484,"tags":{"emergency":"fire_hydrant","operator":"WMFS","source":"survey"}},{"type":"node","id":4737593840,"lat":52.4812006,"lon":-1.9016404,"tags":{"man_made":"street_cabinet","utility":"telecom"}},{"type":"node","id":4737593841,"lat":52.4812218,"lon":-1.9016632,"tags":{"emergency":"fire_hydrant","fire_hydrant:type":"underground","source":"survey"}},{"type":"node","id":6330336567,"lat":52.4813354,"lon":-1.9017707,"tags":{"crossing":"traffic_signals","highway":"crossing","ref":"E0106","source":"survey"}},{"type":"node","id":7013232505,"lat":52.4814099,"lon":-1.9017021,"tags":{"entrance":"yes"}},{"type":"node","id":7013232506,"lat":52.4814661,"lon":-1.9017908,"tags":{"addr:housenumber":"19","addr:street":"Newhall Street","entrance":"yes"}},{"type":"node","id":7306158013,"lat":52.481248,"lon":-1.9020402,"tags":{"addr:city":"Birmingham","addr:postcode":"B3 3AS","addr:street":"Newhall Street"}},{"type":"node","id":11385950185,"lat":52.4811658,"lon":-1.9021623,"tags":{"name":"Acturis","office":"yes"}}]}