{"version":0.6,"generator":"Overpass API 0.7.62.5 1bd436f1","osm3s":{"timestamp_osm_base":"2025-03-12T11:52:30Z","copyright":"The data included in this document is from www.openstreetmap.org. The data is made available under ODbL."},"elements":[{"type":"node","id":273113404,"lat":52.4811562,"lon":-1.8974732,"tags":{"name":"The Angel Drinking Fountain","source":"survey","tourism":"artwork","wikidata":"Q21078185"}},{"type":"node","id":355916993,"lat":52.4810356,"lon":-1.8976606,"tags":{"amenity":"bicycle_parking","bcc_ref":"48","bicycle_parking":"stands","capacity":"10","check_date":"2024-02-19","covered":"no","name":"Temple Row at St Philip's","source":"survey"}},{"type":"node","id":355916994,"lat":52.4810866,"lon":-1.897327,"tags":{"historic":"memorial","memorial":"plaque","name":"Dr John Ash founder of the General Hospital","openplaques:id":"1536","source":"survey","subject:wikidata":"Q6219547","subject:wikipedia":"en:John Ash (physician)"}},{"type":"node","id":355916995,"lat":52.4812819,"lon":-1.8968871,"tags":{"historic":"memorial","memorial":"plaque","name":"William Sands Cox founder of Birmingham Medical School","openplaques:id":"1555","source":"survey","subject:wikidata":"Q8018109","subject:wikipedia":"en:William Sands Cox"}},{"type":"node","id":956010116,"lat":52.4814042,"lon":-1.8971104,"tags":{"shop":"yes","source":"visual survey; estimate","status":"vacant"}},{"type":"node","id":956010117,"lat":52.4814822,"lon":-1.8974193,"tags":{"addr:city":"Birmingham","addr:housenumber":"2","addr:postcode":"B3 2RB","addr:street":"St Philip's Place","amenity":"bank","brand":"RBS","brand:wikidata":"Q160126","brand:wikipedia":"en:Royal Bank of Scotland","name":"RBS","official_name":"Royal Bank of Scotland","source":"visual survey;estimate","wheelchair":"yes"}},{"type":"node","id":956010122,"lat":52.4813701,"lon":-1.8972659,"tags":{"addr:city":"Birmingham","addr:postcode":"B3 2PT","addr:street":"St Philip's Place","disused:shop":"yes","note":"3 ATMs","source":"visual survey; estimate"}},{"type":"node","id":1083797746,"lat":52.4814264,"lon":-1.8973376,"tags":{"amenity":"bank","name":"Coutts","wheelchair":"yes"}},{"type":"node","id":1337012311,"lat":52.4809956,"lon":-1.897881,"tags":{"heritage":"2","heritage:operator":"Historic England","historic":"monument","listed_status":"Grade II","name":"Fluted Column","source":"visual survey; bing;Birmingham_City_council"}},{"type":"node","id":1965422609,"lat":52.4810016,"lon":-1.8978287,"tags":{"natural":"tree","source":"bing"}},{"type":"node","id":1965422631,"lat":52.4810492,"lon":-1.8977205,"tags":{"natural":"tree","source":"bing"}},{"type":"node","id":1965422648,"lat":52.4810867,"lon":-1.8977791,"tags":{"natural":"tree","source":"bing"}},{"type":"node","id":1965422651,"lat":52.4811013,"lon":-1.8976213,"tags":{"natural":"tree","source":"bing"}},{"type":"node","id":1965422654,"lat":52.4811389,"lon":-1.8976724,"tags":{"natural":"tree","source":"bing"}},{"type":"node","id":1965422657,"lat":52.4811608,"lon":-1.8975267,"tags":{"natural":"tree","source":"bing"}},{"type":"node","id":1965422660,"lat":52.4812551,"lon":-1.8979414,"tags":{"natural":"tree","source":"bing"}},{"type":"node","id":1965422691,"lat":52.4813203,"lon":-1.8977522,"tags":{"natural":"tree","source":"bing"}},{"type":"node","id":1965422707,"lat":52.4813585,"lon":-1.8978287,"tags":{"natural":"tree","source":"bing"}},{"type":"node","id":1965422747,"lat":52.4814407,"lon":-1.8979116,"tags":{"natural":"tree","source":"bing"}},{"type":"node","id":1965422758,"lat":52.4814757,"lon":-1.8978167,"tags":{"natural":"tree","source":"bing"}},{"type":"node","id":1965422782,"lat":52.4815623,"lon":-1.8979286,"tags":{"natural":"tree","source":"bing"}},{"type":"node","id":2448319437,"lat":52.4815372,"lon":-1.8968787,"tags":{"addr:city":"Birmingham","addr:postcode":"B2 5HU","addr:street":"Great Western Arcade","name":"Handmade Boutique","shop":"interior_decoration"}},{"type":"node","id":2448319439,"lat":52.481581,"lon":-1.89693,"tags":{"addr:city":"Birmingham","addr:postcode":"B2 5HU","addr:street":"Great Western Arcade","name":"Jaeger","shop":"clothes"}},{"type":"node","id":2448319443,"lat":52.4816664,"lon":-1.8968532,"tags":{"addr:city":"Birmingham","addr:postcode":"B2 5HU","addr:street":"Great Western Arcade","name":"Tablites","shop":"e-cigarette"}},{"type":"node","id":2448319457,"lat":52.4816248,"lon":-1.8969814,"tags":{"addr:city":"Birmingham","addr:postcode":"B2 5HU","addr:street":"Great Western Arcade","name":"Birmingham Post & Mail","shop":"newsagent"}},{"type":"node","id":2448319459,"lat":52.4816686,"lon":-1.8970327,"tags":{"addr:city":"Birmingham","addr:postcode":"B2 5HU","addr:street":"Great Western Arcade","amenity":"restaurant","name":"Bistro 1847","wheelchair":"no"}},{"type":"node","id":7826499704,"lat":52.4815061,"lon":-1.8973437,"tags":{"addr:city":"Birmingham","addr:postcode":"B3 2RD","addr:street":"St Philip's Place"}}]}