{"version":0.6,"generator":"Overpass API 0.7.62.5 1bd436f1","osm3s":{"timestamp_osm_base":"2025-03-12T11:53:30Z","copyright":"The data included in this document is from www.openstreetmap.org. The data is made available under ODbL."},"elements":[{"type":"node","id":2519250867,"lat":52.4806635,"lon":-1.8966059,"tags":{"brand":"Evans Cycles","brand:wikidata":"Q5415901","brand:wikipedia":"en:Evans Cycles","name":"Evans Cycles","shop":"bicycle"}},{"type":"node","id":2519320995,"lat":52.4805848,"lon":-1.8958517,"tags":{"name":"News Hut","shop":"newsagent"}},{"type":"node","id":2519321022,"lat":52.480413,"lon":-1.8961529,"tags":{"note":"Vacant shop"}},{"type":"node","id":2519321023,"lat":52.4805158,"lon":-1.8960433,"tags":{"note":"Vacant shop"}},{"type":"node","id":2519321024,"lat":52.4806546,"lon":-1.8958812,"tags":{"note":"Vacant shop"}},{"type":"node","id":2621723242,"lat":52.4805562,"lon":-1.8959886,"tags":{"addr:city":"Birmingham","addr:postcode":"B2 4UW","addr:street":"Martineau Place","brand":"Staybridge Suites","brand:wikidata":"Q7605116","brand:wikipedia":"en:Staybridge Suites","fhrs:id":"670175","name":"Staybridge Suites","tourism":"hotel","wheelchair":"yes"}},{"type":"node","id":4204911721,"lat":52.4806579,"lon":-1.8961363,"tags":{"railway":"tram_crossing"}},{"type":"node","id":4738022546,"lat":52.4808086,"lon":-1.8961032,"tags":{"emergency":"fire_hydrant","fire_hydrant:type":"underground","operator":"WMFS","source":"survey"}},{"type":"node","id":7135760394,"lat":52.4808433,"lon":-1.8959826,"tags":{"railway":"tram_crossing"}}]}