{"version":0.6,"generator":"Overpass API 0.7.62.5 1bd436f1","osm3s":{"timestamp_osm_base":"2025-03-12T11:52:30Z","copyright":"The data included in this document is from www.openstreetmap.org. The data is made available under ODbL."},"elements":[{"type":"node","id":310679139,"lat":52.4805514,"lon":-1.8983632,"tags":{"amenity":"post_box","brand":"Royal Mail","brand:wikidata":"Q638098","brand:wikipedia":"en:Royal Mail","collection_times":"Mo-Fr 09:00; Sa 07:00","operator":"Royal Mail","operator:wikidata":"Q638098","post_box:type":"pillar","ref":"B2 239D","royal_cypher":"EIIR","royal_cypher:wikidata":"Q33102113","source":"survey"}},{"type":"node","id":367432617,"lat":52.4806623,"lon":-1.8988867,"tags":{"amenity":"bicycle_parking","bcc_ref":"49","bicycle_parking":"stands","capacity":"10","covered":"no","name":"Temple Row opp Temple St","source":"survey"}},{"type":"node","id":498472841,"lat":52.4806015,"lon":-1.8980843,"tags":{"amenity":"motorcycle_parking","source":"survey"}},{"type":"node","id":912152845,"lat":52.4806386,"lon":-1.8986606,"tags":{"amenity":"charging_station","capacity":"2","name":"Temple Row Electric Charge Point","operator":"Birmingham City Council","operator:wikidata":"Q4916650","parking":"electric vehicles only","ref":"APT-1755-0001\/12P","socket:type2":"2","source":"Birmingham City Council KML;NCR"}},{"type":"node","id":986548565,"lat":52.4808798,"lon":-1.8984417,"tags":{"PMSA_ref":"WMbiBIxx239","artwork_type":"obelisk","heritage":"2","heritage:operator":"Historic England","historic":"memorial","listed_status":"Grade II","name":"Burnaby Obelisk","source":"survey;PMSA","tourism":"artwork","wheelchair":"yes","wikidata":"Q26340502"}},{"type":"node","id":1083128219,"lat":52.4804474,"lon":-1.8990494,"tags":{"amenity":"bench","backrest":"yes","source":"visual survey; estimate"}},{"type":"node","id":1337012320,"lat":52.4807493,"lon":-1.898998,"tags":{"heritage":"2","heritage:operator":"Historic England","historic":"monument","listed_status":"Grade II","name":"Unett Monument","source":"visual survey; bing;Birmingham_City_council","wikidata":"Q26626972"}},{"type":"node","id":1399859262,"lat":52.4805939,"lon":-1.8988627,"tags":{"amenity":"motorcycle_parking","bcc_ref":"80","capacity":"5","covered":"no","name":"Temple Row at Temple St"}},{"type":"node","id":1510192534,"lat":52.480855,"lon":-1.8985083,"tags":{"amenity":"bench","backrest":"yes","check_date":"2022-10-22","colour":"black","material":"metal","operator":"Cathedral Church of Saint Philip","seats":"4","source":"survey; Bing"}},{"type":"node","id":1510192566,"lat":52.4808759,"lon":-1.8983449,"tags":{"amenity":"bench","backrest":"yes","check_date":"2022-10-22","colour":"black","material":"metal","operator":"Cathedral Church of Saint Philip","seats":"4","source":"survey; Bing"}},{"type":"node","id":1510192579,"lat":52.4809041,"lon":-1.8985184,"tags":{"amenity":"bench","backrest":"yes","check_date":"2022-10-22","colour":"black","material":"metal","operator":"Cathedral Church of Saint Philip","seats":"4","source":"survey; Bing"}},{"type":"node","id":1510192608,"lat":52.4809195,"lon":-1.898355,"tags":{"amenity":"bench","backrest":"yes","check_date":"2022-10-22","colour":"black","material":"metal","operator":"Cathedral Church of Saint Philip","seats":"4","source":"survey; Bing"}},{"type":"node","id":1510192616,"lat":52.4809465,"lon":-1.8985164,"tags":{"amenity":"bench","backrest":"yes","check_date":"2022-10-22","colour":"black","material":"metal","operator":"Cathedral Church of Saint Philip","seats":"4","source":"survey; Bing"}},{"type":"node","id":1510192640,"lat":52.4809613,"lon":-1.8983893,"tags":{"amenity":"bench","backrest":"yes","check_date":"2022-10-22","colour":"black","material":"metal","operator":"Cathedral Church of Saint Philip","seats":"4","source":"survey; Bing"}},{"type":"node","id":1540689618,"lat":52.4803914,"lon":-1.8989544,"tags":{"addr:city":"Birmingham","addr:housenumber":"43","addr:postcode":"B2 5DP","addr:street":"Temple Street","level":"-1","name":"Bicicielo Pinarello","phone":"+44 121 643 4442","shop":"bicycle","source":"survey","website":"http:\/\/www.bicicielo.com\/"}},{"type":"node","id":1965422532,"lat":52.4807078,"lon":-1.8986146,"tags":{"natural":"tree","source":"bing"}},{"type":"node","id":1965422543,"lat":52.4807307,"lon":-1.8987919,"tags":{"natural":"tree","source":"bing"}},{"type":"node","id":1965422550,"lat":52.4807408,"lon":-1.8983066,"tags":{"natural":"tree","source":"bing"}},{"type":"node","id":1965422553,"lat":52.48076,"lon":-1.8984298,"tags":{"natural":"tree","source":"bing"}},{"type":"node","id":1965422556,"lat":52.4807765,"lon":-1.898263,"tags":{"natural":"tree","source":"bing"}},{"type":"node","id":1965422562,"lat":52.4808048,"lon":-1.8990053,"tags":{"natural":"tree","source":"bing"}},{"type":"node","id":1965422589,"lat":52.4808899,"lon":-1.8981338,"tags":{"natural":"tree","source":"bing"}},{"type":"node","id":1965422597,"lat":52.4809201,"lon":-1.8980752,"tags":{"natural":"tree","source":"bing"}},{"type":"node","id":1975350513,"lat":52.4806439,"lon":-1.89884,"tags":{"amenity":"taxi","check_date":"2023-06-06","source":"bing"}},{"type":"node","id":2644108673,"lat":52.4804578,"lon":-1.8986396,"tags":{"name":"Berrymans Lace Mawer","office":"lawyer"}},{"type":"node","id":2962706903,"lat":52.480899,"lon":-1.8987179,"tags":{"historic":"memorial","memorial":"obelisk","name":"Victims of the Birmingham Bombs November 1974","source":"survey"}},{"type":"node","id":4592379294,"lat":52.4805839,"lon":-1.899005,"tags":{"emergency":"fire_hydrant","fire_hydrant:diameter:signed":"no","fire_hydrant:position":"sidewalk","fire_hydrant:type":"underground","operator":"WMFS","source":"survey"}},{"type":"node","id":4592379295,"lat":52.4806016,"lon":-1.8989572,"tags":{"emergency":"fire_hydrant","fire_hydrant:diameter:signed":"no","fire_hydrant:position":"sidewalk","fire_hydrant:type":"underground","operator":"WMFS","source":"survey"}},{"type":"node","id":5865113823,"lat":52.480535,"lon":-1.8988444,"tags":{"addr:city":"Birmingham","addr:postcode":"B2 5LS","addr:street":"Temple Row","amenity":"restaurant","brand":"The Ivy Collection","brand:wikidata":"Q108197462","check_date":"2024-08-31","cuisine":"british","fhrs:id":"1131064","name":"The Ivy"}},{"type":"node","id":6990033241,"lat":52.4805529,"lon":-1.8990418,"tags":{"barrier":"lift_gate","source":"survey"}},{"type":"node","id":7142797285,"lat":52.4804936,"lon":-1.8984955,"tags":{"addr:city":"Birmingham","addr:housenumber":"61-63","addr:postcode":"B2 5LS","addr:street":"Temple Row","amenity":"restaurant","cuisine":"italian","fhrs:id":"1518049","name":"Riva Blu","old_name":"Gino D\u2019Acampo My Restaurant"}},{"type":"node","id":10834169886,"lat":52.4806652,"lon":-1.8989241,"tags":{"information":"map","tourism":"information"}},{"type":"node","id":12536974743,"lat":52.4806239,"lon":-1.8990551,"tags":{"crossing":"marked","crossing:island":"no","crossing:markings":"surface","highway":"crossing","tactile_paving":"yes","traffic_calming":"table"}},{"type":"node","id":12536974744,"lat":52.4806187,"lon":-1.8989434,"tags":{"crossing":"marked","crossing:island":"no","crossing:markings":"surface","highway":"crossing","tactile_paving":"yes","traffic_calming":"table"}},{"type":"node","id":12536974752,"lat":52.4805782,"lon":-1.8990331,"tags":{"crossing":"marked","crossing:island":"no","crossing:markings":"surface","highway":"crossing","tactile_paving":"yes","traffic_calming":"table"}}]}