{"version":0.6,"generator":"Overpass API 0.7.62.5 1bd436f1","osm3s":{"timestamp_osm_base":"2025-03-12T11:52:30Z","copyright":"The data included in this document is from www.openstreetmap.org. The data is made available under ODbL."},"elements":[{"type":"node","id":367432614,"lat":52.4806725,"lon":-1.8991085,"tags":{"man_made":"surveillance","source":"survey"}},{"type":"node","id":1015045927,"lat":52.4803498,"lon":-1.9000345,"tags":{"PMSA_ref":"WMbiBIxx032","artist_name":"William James Bloye","artwork:location":"on corner of old Legal & General Bdg at high level","artwork:material":"Portland Stone","artwork_type":"Panels (4)","name":"Wisdom, Fortitude, Charity and Faith","start_date":"~1932","tourism":"artwork"}},{"type":"node","id":1083128237,"lat":52.4804048,"lon":-1.8990659,"tags":{"amenity":"bench","backrest":"yes","source":"visual survey; estimate"}},{"type":"node","id":1083128266,"lat":52.4807672,"lon":-1.8995714,"tags":{"booth":"K6","covered":"booth","disused:amenity":"telephone","heritage":"2","heritage:operator":"Historic England","listed_status":"Grade II","man_made":"telephone_box","note":"phone has been removed","source":"survey;Birmingham City Council"}},{"type":"node","id":1083797740,"lat":52.4806662,"lon":-1.8990764,"tags":{"amenity":"grit_bin","source":"visual survey; estimate"}},{"type":"node","id":1510174916,"lat":52.4809417,"lon":-1.8993728,"tags":{"commemorates":"Visit by Princess Diana","natural":"tree","planted_by":"Princess Diana","source":"local knowledge; estimate"}},{"type":"node","id":1965422538,"lat":52.4807298,"lon":-1.8991917,"tags":{"natural":"tree","source":"bing"}},{"type":"node","id":1965422547,"lat":52.4807362,"lon":-1.8993765,"tags":{"natural":"tree","source":"bing"}},{"type":"node","id":1965422559,"lat":52.4807981,"lon":-1.8994436,"tags":{"natural":"tree","source":"bing"}},{"type":"node","id":1965422579,"lat":52.4808305,"lon":-1.8992157,"tags":{"natural":"tree","source":"bing"}},{"type":"node","id":1965422584,"lat":52.4808724,"lon":-1.8995198,"tags":{"natural":"tree","source":"bing"}},{"type":"node","id":1965422594,"lat":52.4808927,"lon":-1.8993615,"tags":{"natural":"tree","source":"bing"}},{"type":"node","id":1965422600,"lat":52.4809503,"lon":-1.8990745,"tags":{"natural":"tree","source":"bing"}},{"type":"node","id":1965422603,"lat":52.4809686,"lon":-1.899632,"tags":{"natural":"tree","source":"bing"}},{"type":"node","id":2519250857,"lat":52.4804229,"lon":-1.8996594,"tags":{"addr:city":"Birmingham","addr:housenumber":"3-6","addr:postcode":"B2 5PG","addr:street":"Waterloo Street","amenity":"restaurant","check_date":"2024-08-31","cuisine":"steak_house","fhrs:id":"875653","name":"Bar+Block"}},{"type":"node","id":2526028744,"lat":52.4805152,"lon":-1.9000408,"tags":{"name":"Bargain Pages","office":"classified_ads"}},{"type":"node","id":4617826417,"lat":52.4806512,"lon":-1.8995909,"tags":{"access":"yes","amenity":"motorcycle_parking","capacity":"6","covered":"no","source":"survey"}},{"type":"node","id":4617826418,"lat":52.4804382,"lon":-1.8998768,"tags":{"emergency":"fire_hydrant","fire_hydrant:type":"underground","operator":"WMFS","source":"survey"}},{"type":"node","id":4829141020,"lat":52.4807755,"lon":-1.8998544,"tags":{"addr:city":"Birmingham","addr:postcode":"B2 5NY","addr:street":"Temple Row West","amenity":"cafe","check_date":"2024-08-31","cuisine":"coffee_shop;middle_eastern","fhrs:id":"1179765","name":"Damascena","outdoor_seating":"yes","source":"survey","wheelchair":"no"}},{"type":"node","id":5609614769,"lat":52.4805721,"lon":-1.8993537,"tags":{"amenity":"bicycle_parking","bicycle_parking":"stands","capacity":"8","covered":"no","source":"bcc"}},{"type":"node","id":6990033240,"lat":52.4803548,"lon":-1.8999073,"tags":{"addr:city":"Birmingham","addr:postcode":"B2 5PG","addr:street":"Waterloo Street","amenity":"restaurant","fhrs:id":"1179876","name":"Sabai Sabai","source":"survey"}},{"type":"node","id":10834169889,"lat":52.4806397,"lon":-1.8993878,"tags":{"direction":"backward","highway":"give_way"}}]}