{"version":0.6,"generator":"Overpass API 0.7.62.5 1bd436f1","osm3s":{"timestamp_osm_base":"2025-03-12T12:11:49Z","copyright":"The data included in this document is from www.openstreetmap.org. The data is made available under ODbL."},"elements":[{"type":"node","id":865174173,"lat":52.4776454,"lon":-1.903117,"tags":{"amenity":"parking_entrance","entrance":"yes","parking":"multi-storey"}},{"type":"node","id":1335373245,"lat":52.4777377,"lon":-1.9028037,"tags":{"information":"guidepost","source":"survey","tourism":"information"}},{"type":"node","id":1481797702,"lat":52.4782553,"lon":-1.9025204,"tags":{"operator":"Network Rail","railway":"switch"}},{"type":"node","id":1481801682,"lat":52.4782042,"lon":-1.9024514,"tags":{"operator":"Network Rail","railway":"railway_crossing"}},{"type":"node","id":5489454372,"lat":52.4778626,"lon":-1.902719,"tags":{"ShortDescription":"CCCPS26 Brunel Street","bcc_ref":"BIRM-V022","operator":"Birmingham City Council","ref":"CCCPS26","traffic_sign":"variable_message","traffic_sign:location":"roadside","variable_message_information":"parking"}},{"type":"node","id":5489454374,"lat":52.4776286,"lon":-1.9027343,"tags":{"ShortDescription":"CCCPS36 Navigation St out-bound","bcc_ref":"BIRM-V004","operator":"Birmingham City Council","ref":"CCCPS36","traffic_sign":"variable_message","traffic_sign:location":"roadside","variable_message_information":"parking"}},{"type":"node","id":6249629005,"lat":52.4776051,"lon":-1.9024305,"tags":{"addr:city":"Birmingham","addr:postcode":"B5 4AX","addr:street":"Navigation Street","amenity":"restaurant","fhrs:id":"1090268","name":"tamatanga","source":"survey","website":"https:\/\/tamatanga.com\/locations\/birmingham\/"}},{"type":"node","id":9244694137,"lat":52.4779065,"lon":-1.9028125,"tags":{"access":"yes","amenity":"motorcycle_parking","capacity":"5","covered":"no","fee":"yes","operator":"Birmingham City Council"}}]}