{"version":0.6,"generator":"Overpass API 0.7.62.5 1bd436f1","osm3s":{"timestamp_osm_base":"2025-03-12T11:57:36Z","copyright":"The data included in this document is from www.openstreetmap.org. The data is made available under ODbL."},"elements":[{"type":"node","id":312628825,"lat":52.4802983,"lon":-1.8946065,"tags":{"amenity":"post_box","brand":"Royal Mail","brand:wikidata":"Q638098","collection_times":"Mo-Fr 06:30, Sa 11:45","mail:meter":"yes","operator":"Royal Mail","operator:wikidata":"Q638098","post_box:type":"parcel","ref":"B4 9034P","royal_cypher":"no","source":"survey"}},{"type":"node","id":312628826,"lat":52.4802938,"lon":-1.8946015,"tags":{"amenity":"post_box","brand":"Royal Mail","brand:wikidata":"Q638098","collection_times":"Mo-Fr 06:30, Sa 11:45","operator":"Royal Mail","operator:wikidata":"Q638098","post_box:type":"pillar","ref":"B4 25","royal_cypher":"EIIR","royal_cypher:wikidata":"Q33102113","source":"survey"}},{"type":"node","id":312628827,"lat":52.4802873,"lon":-1.8945943,"tags":{"amenity":"post_box","brand":"Royal Mail","brand:wikidata":"Q638098","collection_times":"Mo-Fr 06:30, Sa 11:45","operator":"Royal Mail","operator:wikidata":"Q638098","post_box:type":"pillar","ref":"B4 4025","royal_cypher":"EIIR","royal_cypher:wikidata":"Q33102113","source":"survey"}},{"type":"node","id":312629229,"lat":52.4796572,"lon":-1.8945968,"tags":{"barrier":"bollard","bollard":"rising"}},{"type":"node","id":356729749,"lat":52.480213,"lon":-1.8944019,"tags":{"man_made":"surveillance","source":"survey"}},{"type":"node","id":1153441440,"lat":52.4797527,"lon":-1.8944326,"tags":{"button_operated":"yes","crossing":"traffic_signals","highway":"crossing","ref":"E0596","tactile_paving":"yes","traffic_signals:sound":"yes","traffic_signals:vibration":"yes"}},{"type":"node","id":1410081859,"lat":52.4797273,"lon":-1.8946338,"tags":{"amenity":"bicycle_parking","bcc_ref":"65","bicycle_parking":"stands","capacity":"8","check_date:capacity":"2021-06-17","covered":"no","name":"High Street outside Brantano"}},{"type":"node","id":1580645685,"lat":52.4797328,"lon":-1.8939234,"tags":{"amenity":"atm","brand":"Tesco Bank","brand:wikidata":"Q487494","check_date":"2021-04-14","operator":"Tesco","source":"survey"}},{"type":"node","id":1830935063,"lat":52.4800534,"lon":-1.8946083,"tags":{"bench":"yes","bin":"no","bus":"yes","highway":"bus_stop","lit":"yes","local_ref":"MS20","name":"MS20","name_on_sign":"High St \/ Carrs Lane","naptan:AtcoCode":"43000203102","naptan:Bearing":"N","naptan:BusStopType":"MKD","naptan:CommonName":"Carrs Lane","naptan:Indicator":"Stop MS20","naptan:NaptanCode":"nwmwadwj","naptan:PlusbusZoneRef":"West Midlands","naptan:Status":"ACT","naptan:StopType":"BCT","naptan:Street":"HIGH ST","naptan:Towards":"xxx","note":"temporary name; will become BS2","public_transport":"platform","route_ref":"6;6A;37","shelter":"yes","source":"WMCA","tactile_paving":"no"}},{"type":"node","id":1880099316,"lat":52.4801271,"lon":-1.8944122,"tags":{"amenity:disused":"parking_space","capacity":"3","fee":"no","source":"survey","url":"https:\/\/www.birmingham.gov.uk\/directory_record\/3734\/high_street_parking"}},{"type":"node","id":2523807493,"lat":52.48017,"lon":-1.8942433,"tags":{"name":"City Hair & Cosmetics","old_name":"Betfred","shop":"hairdresser"}},{"type":"node","id":2523807500,"lat":52.4800511,"lon":-1.8942868,"tags":{"addr:city":"Birmingham","addr:housenumber":"55-56","addr:postcode":"B4 7SY","addr:street":"High Street","addr:suburb":"Ladywood","amenity":"fast_food","cuisine":"chicken","fhrs:id":"1389316","name":"Love Chicken","source:addr":"FHRS Open Data"}},{"type":"node","id":2523807513,"lat":52.4801085,"lon":-1.8942666,"tags":{"brand":"Admiral","brand:wikidata":"Q25205850","check_date":"2024-08-19","check_date:opening_hours":"2024-08-19","gambling":"slot_machines","leisure":"adult_gaming_centre","name":"Admiral","opening_hours":"Mo-Sa 09:00-22:00; Su 10:00-22:00","website":"https:\/\/www.admiralslots.co.uk\/venues\/birmingham\/"}},{"type":"node","id":3724594248,"lat":52.4796821,"lon":-1.8946196,"tags":{"man_made":"street_cabinet","street_cabinet":"bollard_control"}},{"type":"node","id":3724594249,"lat":52.4796891,"lon":-1.8936523,"tags":{"man_made":"street_cabinet","source":"survey","street_cabinet":"?"}},{"type":"node","id":3724594250,"lat":52.479697,"lon":-1.8944446,"tags":{"man_made":"street_cabinet","source":"survey","street_cabinet":"?"}},{"type":"node","id":4568644437,"lat":52.4797027,"lon":-1.8943933,"tags":{"emergency":"fire_hydrant","fire_hydrant:type":"underground","operator":"WMFS","source":"survey"}},{"type":"node","id":4618056582,"lat":52.4802246,"lon":-1.8943483,"tags":{"emergency":"fire_hydrant","fire_hydrant:type":"underground","operator":"WMFS","source":"survey"}},{"type":"node","id":4618056583,"lat":52.4802417,"lon":-1.8943497,"tags":{"emergency":"fire_hydrant","fire_hydrant:type":"underground","operator":"WMFS","source":"survey"}},{"type":"node","id":4720101944,"lat":52.4796793,"lon":-1.8944961,"tags":{"age":"early-mature","constituency":"City Centre","height":"10","height:range":"9 to 9.99m","leaf_cycle":"deciduous","leaf_type":"broadleaved","natural":"tree","plot_number":"100006","ref:usrn":"2701781","site_name":"HIGH STREET","source":"bcc_dec_2016","species":"Carpinus betulus","species:wikidata":"Q158776","taxon":"Carpinus betulus fastigiata","tree_form":"natural","ward":"Ladywood"}},{"type":"node","id":4734579172,"lat":52.4796748,"lon":-1.8942402,"tags":{"bench":"yes","bin":"no","bus":"yes","check_date":"2024-04-14","highway":"bus_stop","lit":"yes","name":"MS7","naptan:AtcoCode":"43000201503","naptan:Bearing":"NW","naptan:BusStopType":"MKD","naptan:CommonName":"Church Centre","naptan:Indicator":"Stop MS7","naptan:NaptanCode":"nwmwgpjp","naptan:Status":"ACT","naptan:StopType":"BCT","naptan:Street":"CARRS LANE","naptan:Towards":"Sparkbrook, Hall Green and Shi","public_transport":"platform","route_ref":"2;3;5;31;X20","shelter":"yes","source":"WMCA","tactile_paving":"no"}},{"type":"node","id":4978793278,"lat":52.4803068,"lon":-1.8941422,"tags":{"button_operated":"yes","crossing":"traffic_signals","crossing:island":"no","highway":"crossing","ref":"E0114","source":"survey","tactile_paving":"yes","traffic_signals:sound":"no","traffic_signals:vibration":"no"}},{"type":"node","id":7471343031,"lat":52.4802983,"lon":-1.8935535,"tags":{"railway":"tram_level_crossing"}},{"type":"node","id":9334262789,"lat":52.479839,"lon":-1.8944795,"tags":{"emergency":"fire_hydrant","fire_hydrant:type":"underground","source":"survey"}},{"type":"node","id":9334262790,"lat":52.4798558,"lon":-1.8944771,"tags":{"emergency":"fire_hydrant","fire_hydrant:position":"sidewalk","fire_hydrant:type":"underground","source":"survey"}},{"type":"node","id":12493400075,"lat":52.4802586,"lon":-1.8944061,"tags":{"button_operated":"yes","crossing":"traffic_signals","crossing:island":"no","highway":"crossing","ref":"E0114","source":"survey","tactile_paving":"yes","traffic_signals:sound":"no","traffic_signals:vibration":"no"}},{"type":"node","id":12493400086,"lat":52.480182,"lon":-1.8941133,"tags":{"man_made":"street_cabinet","source":"survey"}},{"type":"node","id":12530516738,"lat":52.4802875,"lon":-1.8942636,"tags":{"railway":"tram_crossing"}},{"type":"node","id":12530516739,"lat":52.4803018,"lon":-1.8943677,"tags":{"railway":"tram_level_crossing"}}]}