{"version":0.6,"generator":"Overpass API 0.7.62.5 1bd436f1","osm3s":{"timestamp_osm_base":"2025-03-12T12:08:45Z","copyright":"The data included in this document is from www.openstreetmap.org. The data is made available under ODbL."},"elements":[{"type":"node","id":964748418,"lat":52.4810367,"lon":-1.9033402,"tags":{"bicycle":"no","entrance":"yes","foot":"yes","name":"Birmingham School of Art","operator":"Birmingham Institute of Art and Design","source":"visual survey; estimate"}},{"type":"node","id":1109122075,"lat":52.4811186,"lon":-1.9034791,"tags":{"PMSA_ref":"WMbiBIxx078","artist_name":"John Henry Chamberlain;William Martin","artwork:location":"high on building upper storey","artwork:material":"terracotta","artwork:size":"c 3m dia","name":"Rose Window","source":"visual survey; estimate; PMSA","start_date":"1885","tourism":"artwork"}},{"type":"node","id":1830967489,"lat":52.4816381,"lon":-1.9024534,"tags":{"bus":"yes","highway":"bus_stop","local_ref":"NH1","name":"NH1","name_on_sign":"Newhall St \/ Gt Charles St","naptan:AtcoCode":"43000284501","naptan:Bearing":"NW","naptan:BusStopType":"MKD","naptan:CommonName":"Great Charles St","naptan:Indicator":"Stop NH1","naptan:NaptanCode":"nwmapadm","naptan:PlusbusZoneRef":"West Midlands","naptan:Status":"ACT","naptan:StopType":"BCT","naptan:Street":"NEWHALL ST","naptan:Towards":"City Hospital, Jewellery Quart","naptan:verified":"no","public_transport":"platform","route_ref":"101","shelter":"yes","source":"WMCA","tactile_paving":"no"}},{"type":"node","id":3764046057,"lat":52.4811979,"lon":-1.9026022,"tags":{"amenity":"vending_machine","check_date":"2021-08-06","source":"survey","vending":"parking_tickets"}},{"type":"node","id":3775130981,"lat":52.4816681,"lon":-1.9025097,"tags":{"amenity":"vending_machine","source":"survey","vending":"parking_tickets"}},{"type":"node","id":3796457302,"lat":52.4814872,"lon":-1.903177,"tags":{"amenity":"vending_machine","source":"survey","vending":"parking_tickets"}},{"type":"node","id":4541585930,"lat":52.4812517,"lon":-1.9025498,"tags":{"emergency":"fire_hydrant","fire_hydrant:type":"underground","operator":"WMFS","source":"survey"}},{"type":"node","id":4737593843,"lat":52.4816041,"lon":-1.9032243,"tags":{"emergency":"fire_hydrant","operator":"WMFS","source":"survey"}},{"type":"node","id":7306158014,"lat":52.48156,"lon":-1.9026491,"tags":{"addr:city":"Birmingham","addr:postcode":"B3 3PL","addr:street":"Edmund Street"}},{"type":"node","id":7306158016,"lat":52.4811018,"lon":-1.9032385,"tags":{"addr:city":"Birmingham","addr:postcode":"B3 3BG","addr:street":"Margaret Street"}},{"type":"node","id":7306158017,"lat":52.4811177,"lon":-1.9032372,"tags":{"addr:city":"Birmingham","addr:postcode":"B3 3BU","addr:street":"Margaret Street"}}]}