{"version":0.6,"generator":"Overpass API 0.7.62.5 1bd436f1","osm3s":{"timestamp_osm_base":"2025-03-12T11:30:09Z","copyright":"The data included in this document is from www.openstreetmap.org. The data is made available under ODbL."},"elements":[{"type":"node","id":27411605,"lat":52.5194416,"lon":13.4143813,"tags":{"railway":"signal","railway:signal:combined":"DE-ESO:ks","railway:signal:combined:form":"light","railway:signal:combined:function":"block","railway:signal:combined:states":"DE-ESO:hp0;DE-ESO:ks1;DE-ESO:ks2","railway:signal:combined:substitute_signal":"DE-ESO:db:zs12;DE-ESO:dr:zs1","railway:signal:direction":"forward","railway:signal:position":"bridge","railway:signal:speed_limit":"DE-ESO:zs3","railway:signal:speed_limit:deactivated":"no","railway:signal:speed_limit:form":"light","railway:signal:speed_limit:height":"normal","railway:signal:speed_limit:speed":"50;?;off","railway:signal:speed_limit_distant":"DE-ESO:zs3v","railway:signal:speed_limit_distant:form":"light","railway:signal:speed_limit_distant:speed":"40","railway:signal:traversable":"DE-ESO:mastschild_rot-weiss","railway:signal:traversable:type":"written_default_speed;dictated_default_speed","ref":"52"}},{"type":"node","id":866236101,"lat":52.5194773,"lon":13.4144587,"tags":{"addr:city":"Berlin","addr:country":"DE","addr:housenumber":"105","addr:postcode":"10178","addr:street":"Dircksenstra\u00dfe","addr:suburb":"Mitte","check_date":"2023-03-10","check_date:opening_hours":"2024-04-26","contact:email":"alexa@dalink-stoffe.de","contact:phone":"+49 30 28445966","contact:website":"http:\/\/dalink-stoffe.de\/alexa\/","name":"Dalink Stoffe","opening_hours":"Sa 10:00-16:00; Mo-Fr 10:00-18:00","payment:card":"yes","payment:cash":"yes","shop":"fabric","wheelchair":"no"}},{"type":"node","id":1479013521,"lat":52.5193844,"lon":13.4145751,"tags":{"addr:city":"Berlin","addr:country":"DE","addr:housenumber":"104","addr:postcode":"10178","addr:street":"Dircksenstra\u00dfe","addr:suburb":"Mitte","check_date:opening_hours":"2024-02-13","name":"E1 Boxing","opening_hours:signed":"no","shop":"sports"}},{"type":"node","id":3672491297,"lat":52.5193,"lon":13.4144075,"tags":{"operator":"DB Netz AG","railway":"milestone","railway:milestone:catenary_mast":"yes","railway:milestone:emergency_brake_override":"no","railway:position":"1.8","source":"bing; estimation; extrapolation; survey"}},{"type":"node","id":5511604129,"lat":52.5194879,"lon":13.4142097,"tags":{"addr:city":"Berlin","addr:country":"DE","addr:housenumber":"109","addr:place":"Stadtbahnbogen","addr:postcode":"10179","addr:suburb":"Mitte","de:strassenschluessel":"11000000000009138","source":"Geoportal Berlin: RBS-Adressen"}},{"type":"node","id":5511604130,"lat":52.5193956,"lon":13.414328,"tags":{"addr:city":"Berlin","addr:country":"DE","addr:housenumber":"108","addr:place":"Stadtbahnbogen","addr:postcode":"10179","addr:suburb":"Mitte","de:strassenschluessel":"11000000000009138","source":"Geoportal Berlin: RBS-Adressen"}},{"type":"node","id":5511604131,"lat":52.5193086,"lon":13.414439,"tags":{"addr:city":"Berlin","addr:country":"DE","addr:housenumber":"107","addr:place":"Stadtbahnbogen","addr:postcode":"10179","addr:suburb":"Mitte","de:strassenschluessel":"11000000000009138","source":"Geoportal Berlin: RBS-Adressen"}},{"type":"node","id":5511604132,"lat":52.5192486,"lon":13.4145762,"tags":{"addr:city":"Berlin","addr:country":"DE","addr:housenumber":"106","addr:place":"Stadtbahnbogen","addr:postcode":"10179","addr:suburb":"Mitte","de:strassenschluessel":"11000000000009138","source":"Geoportal Berlin: RBS-Adressen"}},{"type":"node","id":5511604133,"lat":52.5191221,"lon":13.4146476,"tags":{"addr:city":"Berlin","addr:country":"DE","addr:housenumber":"105","addr:place":"Stadtbahnbogen","addr:postcode":"10179","addr:suburb":"Mitte","de:strassenschluessel":"11000000000009138","source":"Geoportal Berlin: RBS-Adressen"}},{"type":"node","id":7945564301,"lat":52.5194007,"lon":13.4146051,"tags":{"highway":"street_lamp"}},{"type":"node","id":11427599940,"lat":52.5194567,"lon":13.4144296,"tags":{"railway":"signal","railway:signal:combined":"DE-ESO:ks","railway:signal:combined:form":"light","railway:signal:combined:function":"block","railway:signal:combined:states":"DE-ESO:hp0;DE-ESO:ks1;DE-ESO:ks2","railway:signal:combined:substitute_signal":"DE-ESO:db:zs12;DE-ESO:dr:zs1","railway:signal:direction":"forward","railway:signal:position":"bridge","railway:signal:route":"DE-ESO:zs2","railway:signal:route:form":"light","railway:signal:route:states":"R;?","railway:signal:speed_limit":"DE-ESO:zs3","railway:signal:speed_limit:form":"light","railway:signal:speed_limit_distant":"DE-ESO:zs3v","railway:signal:speed_limit_distant:form":"light","railway:signal:traversable":"DE-ESO:mastschild_rot-weiss","railway:signal:traversable:type":"written_default_speed;dictated_default_speed","ref":"51"}}]}