{"version":0.6,"generator":"Overpass API 0.7.62.5 1bd436f1","osm3s":{"timestamp_osm_base":"2025-03-12T11:31:09Z","copyright":"The data included in this document is from www.openstreetmap.org. The data is made available under ODbL."},"elements":[{"type":"node","id":30731478,"lat":52.5216668,"lon":13.4080888,"tags":{"railway:electricity":"joint","railway:electricity:jumpering":"possible","railway:electricity:ref":"104 VS 3","source":"survey"}},{"type":"node","id":30731499,"lat":52.5220614,"lon":13.4088838,"tags":{"railway":"switch","railway:switch":"default","railway:turnout_side":"right","ref":"191","source":"survey"}},{"type":"node","id":270727248,"lat":52.5220952,"lon":13.4087393,"tags":{"disused:bus":"yes","disused:public_transport":"stop_position","disused:ref:BVG":"107156"}},{"type":"node","id":768074068,"lat":52.5219109,"lon":13.4087211,"tags":{"bus":"yes","gtfs:stop_id":"de:11000:900100031::4","local_ref":"24","name":"S+U Alexanderplatz\/Memhardstra\u00dfe","public_transport":"stop_position"}},{"type":"node","id":1633112625,"lat":52.5220549,"lon":13.4087845,"tags":{"railway":"switch","railway:switch":"default","railway:turnout_side":"right","ref":"691","source":"survey"}},{"type":"node","id":4673135638,"lat":52.5218831,"lon":13.4087849,"tags":{"bench":"yes","bin":"yes","bus":"yes","highway":"bus_stop","lit":"yes","name":"S+U Alexanderplatz\/Memhardstra\u00dfe","public_transport":"platform","shelter":"yes","tactile_paving":"yes"}},{"type":"node","id":5171487414,"lat":52.5220845,"lon":13.4090615,"tags":{"highway":"traffic_signals"}},{"type":"node","id":5171487415,"lat":52.5220273,"lon":13.4080932,"tags":{"addr:city":"Berlin","addr:housenumber":"13","addr:postcode":"10178","addr:street":"Karl-Liebknecht-Stra\u00dfe","amenity":"bicycle_rental","bicycle_rental":"shop","brand":"Swapfiets","brand:wikidata":"Q62104374","fee":"yes","level":"0","name":"Swapfiets","network":"Swapfiets","network:wikidata":"Q62104374","opening_hours":"Mo-Fr 11:00-19:00; Sa 10:00-18:00","operator":"Swapfiets","operator:type":"private","operator:wikidata":"Q62104374","service:bicycle:rental":"yes","shop":"rental","website":"https:\/\/swapfiets.de\/","wheelchair":"yes"}},{"type":"node","id":5222902811,"lat":52.5220952,"lon":13.4082348,"tags":{"addr:city":"Berlin","addr:housenumber":"13","addr:postcode":"10178","addr:street":"Karl-Liebknecht-Stra\u00dfe","brand":"Inoa","motorcycle:type":"scooter","name":"Manga-Mafia Store","opening_hours":"Tu-Fr 13:00-19:00","shop":"anime","website":"https:\/\/store.inoa.de\/","wheelchair":"yes"}},{"type":"node","id":5393663166,"lat":52.5222001,"lon":13.4083924,"tags":{"addr:city":"Berlin","addr:housenumber":"13","addr:postcode":"10178","addr:street":"Karl-Liebknecht-Stra\u00dfe","air_conditioning":"yes","amenity":"restaurant","contact:website":"https:\/\/www.thereed.de","description":"Restaurant und Eventlocation","image":"https:\/\/www.thereed.de\/files\/generate\/1920\/1523951531_REED_Interior_Restaurant_180215_361_eRGB.jpg;https:\/\/www.thereed.de\/files\/generate\/1920\/1529912858_REED_Interior_Restaurant_180215_368_eRGB1.jpg","indoor_seating":"yes","level":"1","name":"The Reed","note":"maybe it's more than a restaurant, not quite clear","opening_hours":"Mo-Su 07:00+","outdoor_seating":"no","smoking":"no","wheelchair":"yes"}},{"type":"node","id":6052737270,"lat":52.5215619,"lon":13.4084213,"tags":{"leaf_cycle":"deciduous","leaf_type":"broadleaved","natural":"tree"}},{"type":"node","id":6052737271,"lat":52.521593,"lon":13.4084882,"tags":{"leaf_cycle":"deciduous","leaf_type":"broadleaved","natural":"tree"}},{"type":"node","id":6052737273,"lat":52.5217808,"lon":13.4086216,"tags":{"highway":"street_lamp"}},{"type":"node","id":6058172608,"lat":52.5220607,"lon":13.4084694,"tags":{"highway":"street_lamp"}},{"type":"node","id":7355139679,"lat":52.5215637,"lon":13.4085205,"tags":{"amenity":"bicycle_parking","bicycle_parking":"stands","capacity":"8","check_date:capacity":"2024-10-26","covered":"no"}},{"type":"node","id":9659133125,"lat":52.5216909,"lon":13.4080613,"tags":{"railway:electricity":"joint","railway:electricity:jumpering":"possible","railway:electricity:ref":"104 VS 3","source":"survey"}},{"type":"node","id":9687727249,"lat":52.5216226,"lon":13.4083146,"tags":{"highway":"street_lamp"}},{"type":"node","id":9687727250,"lat":52.5218574,"lon":13.4087868,"tags":{"highway":"street_lamp"}},{"type":"node","id":9899650227,"lat":52.5218974,"lon":13.4091005,"tags":{"addr:city":"Berlin","addr:country":"DE","addr:housenumber":"14","addr:postcode":"10178","addr:street":"Karl-Liebknecht-Stra\u00dfe","addr:suburb":"Mitte"}},{"type":"node","id":10676923998,"lat":52.5220571,"lon":13.4083009,"tags":{"amenity":"clock","display":"analog","faces":"4","support":"pole"}},{"type":"node","id":10676923999,"lat":52.5220234,"lon":13.4083847,"tags":{"advertising":"column","luminous":"yes"}},{"type":"node","id":11732225637,"lat":52.5217361,"lon":13.4083664,"tags":{"bus":"yes","gtfs:stop_id":"de:11000:900100031::7","local_ref":"26","name":"S+U Alexanderplatz\/Memhardstra\u00dfe","public_transport":"stop_position"}},{"type":"node","id":11732225639,"lat":52.5218173,"lon":13.4085309,"tags":{"bus":"yes","gtfs:stop_id":"de:11000:900100003::12","local_ref":"25","name":"S+U Alexanderplatz\/Memhardstra\u00dfe","public_transport":"stop_position"}},{"type":"node","id":12072258416,"lat":52.5219105,"lon":13.4080727,"tags":{"man_made":"manhole","manhole":"drain"}},{"type":"node","id":12072258417,"lat":52.5218693,"lon":13.4080116,"tags":{"addr:floor":"0","emergency":"fire_hydrant","fire_hydrant:position":"sidewalk","fire_hydrant:type":"underground","level":"0","water_source":"main"}},{"type":"node","id":12072318571,"lat":52.5219727,"lon":13.4081272,"tags":{"man_made":"manhole","manhole":"drain"}},{"type":"node","id":12292191740,"lat":52.5218385,"lon":13.4083549,"tags":{"railway":"signal","railway:signal:direction":"forward","railway:signal:position":"overhead","railway:signal:speed_limit":"DE-BOStrab:g2a","railway:signal:speed_limit:deactivated":"no","railway:signal:speed_limit:form":"sign","railway:signal:speed_limit:height":"normal","railway:signal:speed_limit:speed":"20"}},{"type":"node","id":12292191751,"lat":52.5218164,"lon":13.4083846,"tags":{"railway":"signal","railway:signal:direction":"forward","railway:signal:position":"overhead","railway:signal:speed_limit":"DE-BOStrab:g3","railway:signal:speed_limit:deactivated":"no","railway:signal:speed_limit:form":"sign","railway:signal:speed_limit:speed":"none"}},{"type":"node","id":12292191752,"lat":52.521945,"lon":13.4086045,"tags":{"power":"catenary_mast"}},{"type":"node","id":12292191753,"lat":52.5216758,"lon":13.4080703,"tags":{"power":"catenary_mast"}}]}