{"version":0.6,"generator":"Overpass API 0.7.62.5 1bd436f1","osm3s":{"timestamp_osm_base":"2025-03-12T11:26:02Z","copyright":"The data included in this document is from www.openstreetmap.org. The data is made available under ODbL."},"elements":[{"type":"node","id":455959183,"lat":52.5200776,"lon":13.4163995,"tags":{"crossing:island":"no","crossing:markings":"no","crossing:signals":"no","highway":"crossing","tactile_paving":"no"}},{"type":"node","id":838990134,"lat":52.5199242,"lon":13.4160623,"tags":{"bench":"no","bin":"yes","bus":"yes","check_date:shelter":"2023-10-12","highway":"bus_stop","lit":"yes","name":"S+U Alexanderplatz\/Grunerstra\u00dfe","public_transport":"platform","shelter":"no","tactile_paving":"no"}},{"type":"node","id":1814747560,"lat":52.5196226,"lon":13.4159445,"tags":{"brand":"Douglas","brand:wikidata":"Q2052213","brand:wikipedia":"de:Parf\u00fcmerie Douglas","level":"0","name":"Douglas","opening_hours":"Mo-Sa 10:00-20:00","shop":"perfumery","source":"memory","wheelchair":"yes"}},{"type":"node","id":1814747574,"lat":52.5197205,"lon":13.4157943,"tags":{"addr:city":"Berlin","brand":"Thalia","brand:wikidata":"Q2408854","brand:wikipedia":"de:Thalia B\u00fccher","check_date":"2023-09-30","contact:phone":"+49 30 27581620","contact:website":"https:\/\/www.thalia.de\/buchhandlung\/5850","internet_access":"wlan","level":"0","name":"Thalia","opening_hours":"Mo-Sa 10:00-20:00","shop":"books","wheelchair":"yes"}},{"type":"node","id":2440891579,"lat":52.519915,"lon":13.416607,"tags":{"amenity":"telephone","brand":"Deutsche Telekom","brand:wikidata":"Q9396","brand:wikipedia":"de:Deutsche Telekom","check_date":"2024-04-29","covered":"yes","operator":"Deutsche Telekom AG","operator:wikidata":"Q9396","operator:wikipedia":"de:Deutsche Telekom","payment:coins":"yes","payment:telephone_cards":"yes"}},{"type":"node","id":3867910431,"lat":52.5199638,"lon":13.4161431,"tags":{"bus":"yes","local_ref":"18","name":"S+U Alexanderplatz\/Grunerstra\u00dfe","name:BVG":"S+U Alexanderplatz\/Grunerstra\u00dfe [Alexanderstra\u00dfe]","public_transport":"stop_position","ref:BVG":"105399","website":"https:\/\/qr.bvg.de\/h105399"}},{"type":"node","id":3987051066,"lat":52.5195557,"lon":13.4160437,"tags":{"contact:phone":"+49 30 27596932","contact:website":"https:\/\/shoecity.shoes\/stores\/shoecity-alexa\/","level":"1","name":"Shoe City","opening_hours":"Mo-Sa 10:00-20:00","payment:american_express":"yes","payment:apple_pay":"yes","payment:cash":"yes","payment:diners_club":"yes","payment:google_pay":"yes","payment:jcb":"yes","payment:maestro":"yes","payment:mastercard":"yes","payment:visa":"yes","shoes":"men;women","shop":"shoes","wheelchair":"yes"}},{"type":"node","id":5341149606,"lat":52.5196386,"lon":13.4168594,"tags":{"leaf_cycle":"deciduous","leaf_type":"broadleaved","natural":"tree"}},{"type":"node","id":5341149607,"lat":52.5197292,"lon":13.4167555,"tags":{"leaf_cycle":"deciduous","leaf_type":"broadleaved","natural":"tree"}},{"type":"node","id":5341149608,"lat":52.5200058,"lon":13.4166643,"tags":{"leaf_cycle":"deciduous","leaf_type":"broadleaved","natural":"tree"}},{"type":"node","id":5341149609,"lat":52.519892,"lon":13.4167877,"tags":{"leaf_cycle":"deciduous","leaf_type":"broadleaved","natural":"tree"}},{"type":"node","id":5341149610,"lat":52.5198206,"lon":13.4166536,"tags":{"leaf_cycle":"deciduous","leaf_type":"broadleaved","natural":"tree"}},{"type":"node","id":5341149611,"lat":52.5199116,"lon":13.416549,"tags":{"leaf_cycle":"deciduous","leaf_type":"broadleaved","natural":"tree"}},{"type":"node","id":5341149612,"lat":52.5199895,"lon":13.4164605,"tags":{"leaf_cycle":"deciduous","leaf_type":"broadleaved","natural":"tree"}},{"type":"node","id":5727158069,"lat":52.5195703,"lon":13.4167967,"tags":{"button_operated":"no","crossing":"traffic_signals","crossing:island":"yes","highway":"crossing","tactile_paving":"yes","traffic_signals:sound":"yes","traffic_signals:vibration":"yes"}},{"type":"node","id":5727158070,"lat":52.5195533,"lon":13.4166153,"tags":{"highway":"traffic_signals"}},{"type":"node","id":7892616924,"lat":52.5195525,"lon":13.416025,"tags":{"brand":"Kusmi Tea","brand:wikidata":"Q944186","brand:wikipedia":"en:Kusmi Tea","level":"0","name":"Kusmi Tea","opening_hours":"Mo-Sa 10:00-20:00","operator":"Kusmi Tea","shop":"tea"}},{"type":"node","id":8091138813,"lat":52.5201812,"lon":13.4162345,"tags":{"man_made":"mast"}},{"type":"node","id":8091139650,"lat":52.5195494,"lon":13.4164861,"tags":{"highway":"street_lamp"}},{"type":"node","id":8091139651,"lat":52.5198154,"lon":13.4161816,"tags":{"highway":"street_lamp"}},{"type":"node","id":8091139652,"lat":52.5199558,"lon":13.4165024,"tags":{"amenity":"waste_basket","highway":"street_lamp"}},{"type":"node","id":8091139653,"lat":52.5201553,"lon":13.4163739,"tags":{"highway":"street_lamp"}},{"type":"node","id":8091139656,"lat":52.5201522,"lon":13.4165823,"tags":{"highway":"street_lamp"}},{"type":"node","id":10189375722,"lat":52.5200982,"lon":13.4164993,"tags":{"amenity":"vending_machine","vending":"parking_tickets"}},{"type":"node","id":10189375723,"lat":52.5198862,"lon":13.4165802,"tags":{"amenity":"vending_machine","vending":"parking_tickets"}},{"type":"node","id":10189375731,"lat":52.5199382,"lon":13.416517,"tags":{"amenity":"bench","backrest":"no"}},{"type":"node","id":12312673511,"lat":52.5195513,"lon":13.4157566,"tags":{"brand":"Ecco","brand:wikidata":"Q1280255","name":"Ecco","shop":"shoes"}}]}