{"version":0.6,"generator":"Overpass API 0.7.62.5 1bd436f1","osm3s":{"timestamp_osm_base":"2025-03-12T11:32:13Z","copyright":"The data included in this document is from www.openstreetmap.org. The data is made available under ODbL."},"elements":[{"type":"node","id":614482788,"lat":52.524282,"lon":13.4156959,"tags":{"addr:city":"Berlin","addr:country":"DE","addr:housenumber":"35","addr:postcode":"10178","addr:street":"Keibelstra\u00dfe","addr:suburb":"Mitte","amenity":"police","contact:phone":"+49 30 4664332700","contact:website":"https:\/\/www.berlin.de\/polizei\/dienststellen\/landespolizeidirektion\/direktion-5\/abschnitt-57\/","name":"Polizei Berlin \u2013 Abschnitt 57","operator":"Polizei Berlin","operator:wikidata":"Q328480","operator:wikipedia":"de:Polizei Berlin","wheelchair":"yes","wikidata":"Q108875642"}},{"type":"node","id":2558589460,"lat":52.5243574,"lon":13.415641,"tags":{"entrance":"yes"}},{"type":"node","id":2840695240,"lat":52.524475,"lon":13.4150906,"tags":{"addr:city":"Berlin","addr:country":"DE","addr:housenumber":"6","addr:postcode":"10178","addr:street":"Keibelstra\u00dfe","addr:suburb":"Mitte","source":"Geoportal Berlin \/ Hauskoordinaten"}},{"type":"node","id":4320127898,"lat":52.5246893,"lon":13.4147968,"tags":{"addr:city":"Berlin","addr:country":"DE","addr:housenumber":"5","addr:postcode":"10178","addr:street":"Alex-Wedding-Stra\u00dfe","addr:suburb":"Mitte"}},{"type":"node","id":6101727135,"lat":52.5246341,"lon":13.4148646,"tags":{"addr:city":"Berlin","addr:country":"DE","addr:housenumber":"5","addr:postcode":"10178","addr:street":"Alex-Wedding-Stra\u00dfe","addr:suburb":"Mitte","check_date:opening_hours":"2023-04-17","contact:phone":"+49 30 60985355","contact:website":"http:\/\/productsup.com","email":"cloudinfo@productsup.com","name":"Productsup","office":"it","opening_hours:signed":"no"}},{"type":"node","id":7355084554,"lat":52.5248165,"lon":13.4147809,"tags":{"access":"yes","amenity":"bicycle_parking","bicycle_parking":"stands","capacity":"10","check_date:capacity":"2024-06-19","covered":"no","fee":"no","indoor":"no","level":"0","operator:type":"public","source":"survey"}},{"type":"node","id":8205945303,"lat":52.524385,"lon":13.4151741,"tags":{"amenity":"bicycle_parking","bicycle_parking":"stands","capacity":"50","covered":"no"}},{"type":"node","id":8205945304,"lat":52.5245387,"lon":13.4153635,"tags":{"amenity":"bicycle_parking","bicycle_parking":"stands","capacity":"56","covered":"no"}},{"type":"node","id":8205945305,"lat":52.5247051,"lon":13.4155452,"tags":{"amenity":"bicycle_parking","bicycle_parking":"stands","capacity":"22","covered":"no"}},{"type":"node","id":8245649262,"lat":52.5249036,"lon":13.4147164,"tags":{"denotation":"avenue","leaf_cycle":"deciduous","leaf_type":"broadleaved","natural":"tree"}},{"type":"node","id":8245649264,"lat":52.524843,"lon":13.4148704,"tags":{"denotation":"avenue","leaf_cycle":"deciduous","leaf_type":"broadleaved","natural":"tree"}},{"type":"node","id":8245649265,"lat":52.5249274,"lon":13.4149724,"tags":{"leaf_cycle":"deciduous","leaf_type":"broadleaved","natural":"tree"}},{"type":"node","id":12087068621,"lat":52.5243516,"lon":13.4153299,"tags":{"denotation":"avenue","leaf_cycle":"deciduous","leaf_type":"broadleaved","natural":"tree"}},{"type":"node","id":12087068622,"lat":52.5244445,"lon":13.4154263,"tags":{"denotation":"avenue","leaf_cycle":"deciduous","leaf_type":"broadleaved","natural":"tree"}},{"type":"node","id":12087068623,"lat":52.5245388,"lon":13.4155216,"tags":{"denotation":"avenue","leaf_cycle":"deciduous","leaf_type":"broadleaved","natural":"tree"}},{"type":"node","id":12087068624,"lat":52.5246269,"lon":13.4156181,"tags":{"denotation":"avenue","leaf_cycle":"deciduous","leaf_type":"broadleaved","natural":"tree"}},{"type":"node","id":12087068625,"lat":52.5247072,"lon":13.415718,"tags":{"denotation":"avenue","leaf_cycle":"deciduous","leaf_type":"broadleaved","natural":"tree"}},{"type":"node","id":12522843976,"lat":52.5247624,"lon":13.4147687,"tags":{"denotation":"avenue","leaf_cycle":"deciduous","leaf_type":"broadleaved","natural":"tree"}}]}