{"version":0.6,"generator":"Overpass API 0.7.62.5 1bd436f1","osm3s":{"timestamp_osm_base":"2025-03-12T11:30:09Z","copyright":"The data included in this document is from www.openstreetmap.org. The data is made available under ODbL."},"elements":[{"type":"node","id":3213713657,"lat":52.5195034,"lon":13.4177144,"tags":{"addr:city":"Berlin","addr:country":"DE","addr:housenumber":"21","addr:postcode":"10179","addr:street":"Alexanderstra\u00dfe","addr:suburb":"Mitte","entrance":"yes"}},{"type":"node","id":3213713659,"lat":52.5194281,"lon":13.4179666,"tags":{"addr:city":"Berlin","addr:country":"DE","addr:housenumber":"23","addr:postcode":"10179","addr:street":"Alexanderstra\u00dfe","addr:suburb":"Mitte","entrance":"yes"}},{"type":"node","id":3213714462,"lat":52.5190035,"lon":13.4179422,"tags":{"addr:city":"Berlin","addr:country":"DE","addr:housenumber":"25","addr:postcode":"10179","addr:street":"Alexanderstra\u00dfe","addr:suburb":"Mitte","entrance":"yes"}},{"type":"node","id":4120701562,"lat":52.5189271,"lon":13.4169396,"tags":{"access":"permissive","entrance":"yes","name":"Eingang Alexanderstra\u00dfe"}},{"type":"node","id":5341149598,"lat":52.5188593,"lon":13.4175769,"tags":{"leaf_cycle":"deciduous","leaf_type":"broadleaved","natural":"tree"}},{"type":"node","id":5341149599,"lat":52.5189605,"lon":13.4174958,"tags":{"leaf_cycle":"deciduous","leaf_type":"broadleaved","natural":"tree"}},{"type":"node","id":5341149600,"lat":52.5190588,"lon":13.4174133,"tags":{"leaf_cycle":"deciduous","leaf_type":"broadleaved","natural":"tree"}},{"type":"node","id":5341149601,"lat":52.5191408,"lon":13.4173422,"tags":{"leaf_cycle":"deciduous","leaf_type":"broadleaved","natural":"tree"}},{"type":"node","id":5341149602,"lat":52.5192563,"lon":13.417241,"tags":{"leaf_cycle":"deciduous","leaf_type":"broadleaved","natural":"tree"}},{"type":"node","id":5341149603,"lat":52.5193493,"lon":13.4171498,"tags":{"leaf_cycle":"deciduous","leaf_type":"broadleaved","natural":"tree"}},{"type":"node","id":5341149604,"lat":52.5194452,"lon":13.4170593,"tags":{"leaf_cycle":"deciduous","leaf_type":"broadleaved","natural":"tree"}},{"type":"node","id":5727158071,"lat":52.5192889,"lon":13.4170755,"tags":{"highway":"traffic_signals"}}]}