{"version":0.6,"generator":"Overpass API 0.7.62.5 1bd436f1","osm3s":{"timestamp_osm_base":"2025-03-12T11:32:13Z","copyright":"The data included in this document is from www.openstreetmap.org. The data is made available under ODbL."},"elements":[{"type":"node","id":89274641,"lat":52.52429,"lon":13.4118534,"tags":{"addr:city":"Berlin","addr:country":"DE","addr:housenumber":"29","addr:postcode":"10178","addr:street":"Karl-Liebknecht-Stra\u00dfe","addr:suburb":"Mitte","amenity":"restaurant","check_date":"2025-02-09","contact:phone":"+49 30 25817696","contact:website":"https:\/\/beast-berlin.com\/","cuisine":"steak_house","diet:vegan":"yes","diet:vegetarian":"yes","indoor_seating":"yes","level":"1","name":"Beast Berlin","opening_hours":"Tu-Sa 17:00-02:00; Su,Mo off","outdoor_seating":"no","website:menu":"https:\/\/beast-berlin.com\/wp-content\/uploads\/2024\/06\/DE-Speisen-Getraenke.pdf","wheelchair":"no"}},{"type":"node","id":89274695,"lat":52.5243348,"lon":13.411522,"tags":{"check_date":"2024-04-14","disused:amenity":"restaurant","name":"Las Olas","wheelchair":"limited","wheelchair:description":"Rampe an hinterer Seite."}},{"type":"node","id":1552574141,"lat":52.5243525,"lon":13.4114393,"tags":{"addr:city":"Berlin","addr:country":"DE","addr:housenumber":"4","addr:postcode":"10178","addr:street":"Memhardstra\u00dfe","addr:suburb":"Mitte","source":"Geoportal Berlin \/ Hauskoordinaten"}},{"type":"node","id":1552577332,"lat":52.524584,"lon":13.4116041,"tags":{"addr:city":"Berlin","addr:country":"DE","addr:housenumber":"6","addr:postcode":"10178","addr:street":"Memhardstra\u00dfe","addr:suburb":"Mitte","entrance":"staircase"}},{"type":"node","id":3895249761,"lat":52.5245141,"lon":13.4123884,"tags":{"leaf_cycle":"deciduous","leaf_type":"broadleaved","natural":"tree"}},{"type":"node","id":3895250356,"lat":52.5243635,"lon":13.412199,"tags":{"denotation":"avenue","leaf_cycle":"deciduous","leaf_type":"broadleaved","natural":"tree"}},{"type":"node","id":3895252269,"lat":52.5244131,"lon":13.4122632,"tags":{"denotation":"avenue","leaf_cycle":"deciduous","leaf_type":"broadleaved","natural":"tree"}},{"type":"node","id":3895252270,"lat":52.524462,"lon":13.4123222,"tags":{"denotation":"avenue","leaf_cycle":"deciduous","leaf_type":"broadleaved","natural":"tree"}},{"type":"node","id":12052320095,"lat":52.524299,"lon":13.412154,"tags":{"man_made":"manhole","manhole":"drain"}},{"type":"node","id":12344961898,"lat":52.524401,"lon":13.4120203,"tags":{"camera:mount":"wall","camera:type":"dome","man_made":"surveillance","surveillance":"outdoor","surveillance:type":"camera"}},{"type":"node","id":12344961899,"lat":52.524407,"lon":13.4120289,"tags":{"camera:mount":"wall","camera:type":"dome","man_made":"surveillance","surveillance":"outdoor","surveillance:type":"camera"}},{"type":"node","id":12344961900,"lat":52.5244077,"lon":13.4119144,"tags":{"camera:mount":"wall","camera:type":"dome","man_made":"surveillance","surveillance":"outdoor","surveillance:type":"camera"}}]}