{"version":0.6,"generator":"Overpass API 0.7.62.5 1bd436f1","osm3s":{"timestamp_osm_base":"2025-03-12T11:26:02Z","copyright":"The data included in this document is from www.openstreetmap.org. The data is made available under ODbL."},"elements":[{"type":"node","id":1317772772,"lat":52.5232755,"lon":13.413426,"tags":{"amenity":"taxi","capacity":"14","name":"Park Inn"}},{"type":"node","id":2840695211,"lat":52.5229132,"lon":13.4131947,"tags":{"addr:city":"Berlin","addr:country":"DE","addr:housenumber":"4","addr:postcode":"10178","addr:street":"Alexanderstra\u00dfe","addr:suburb":"Mitte","source":"Geoportal Berlin \/ Hauskoordinaten"}},{"type":"node","id":3232207873,"lat":52.522963,"lon":13.4133016,"tags":{"door":"revolving","entrance":"main"}},{"type":"node","id":11908893970,"lat":52.5235863,"lon":13.4126641,"tags":{"leaf_type":"broadleaved","natural":"tree"}},{"type":"node","id":11908893971,"lat":52.5233907,"lon":13.4130898,"tags":{"denotation":"avenue","leaf_cycle":"deciduous","leaf_type":"broadleaved","natural":"tree"}},{"type":"node","id":11908893972,"lat":52.5233281,"lon":13.4132238,"tags":{"denotation":"avenue","leaf_cycle":"deciduous","leaf_type":"broadleaved","natural":"tree"}},{"type":"node","id":11908893973,"lat":52.5232561,"lon":13.4133774,"tags":{"denotation":"avenue","leaf_cycle":"deciduous","leaf_type":"broadleaved","natural":"tree"}},{"type":"node","id":11908893974,"lat":52.5231934,"lon":13.413517,"tags":{"denotation":"avenue","leaf_cycle":"deciduous","leaf_type":"broadleaved","natural":"tree"}}]}