{"version":0.6,"generator":"Overpass API 0.7.62.5 1bd436f1","osm3s":{"timestamp_osm_base":"2025-03-12T11:24:02Z","copyright":"The data included in this document is from www.openstreetmap.org. The data is made available under ODbL."},"elements":[{"type":"node","id":1816817781,"lat":52.5222549,"lon":13.4118276,"tags":{"addr:city":"Berlin","addr:city:fa":"\u0628\u0631\u0644\u06cc\u0646","addr:housenumber":"9","addr:place":"Alexanderplatz","addr:postcode":"10178","amenity":"restaurant","delivery":"no","diet:vegetarian":"yes","indoor":"yes","indoor_seating":"yes","level":"5","name":"Dinea","opening_hours":"Mo-We 09:30-20:00; Th-Sa 09:30-22:00","outdoor_seating":"no","payment:credit_cards":"yes","payment:debit_cards":"yes","phone":"+49 30 24743748","smoking":"no","takeaway":"yes","website":"https:\/\/www.dinea.de\/berlin-alex\/","wheelchair":"yes"}},{"type":"node","id":1816817789,"lat":52.5227661,"lon":13.4123665,"tags":{"addr:city":"Berlin","addr:housenumber":"8","addr:postcode":"10178","addr:street":"Alexanderplatz","brand":"Go Asia","brand:wikidata":"Q102381911","name":"Go Asia","opening_hours":"Mo-Sa 09:00-21:00","origin":"asian","payment:cash":"yes","payment:girocard":"yes","payment:mastercard":"yes","payment:visa":"yes","phone":"+49 30 394 805 77","shop":"supermarket","start_date":"2023-04-26","wheelchair":"yes"}},{"type":"node","id":3397870263,"lat":52.5225796,"lon":13.4117384,"tags":{"access":"customers","amenity":"toilets","fee":"yes","level":"2","toilets:disposal":"flush","wheelchair":"yes"}},{"type":"node","id":3898773896,"lat":52.5228253,"lon":13.411396,"tags":{"addr:city":"Berlin","amenity":"restaurant","cuisine":"italian","level":"0","name":"Sapori Italiani"}},{"type":"node","id":7355158085,"lat":52.5226291,"lon":13.4121665,"tags":{"access":"yes","addr:floor":"0","amenity":"bicycle_parking","bicycle_parking":"stands","capacity":"30","check_date:capacity":"2022-09-26","covered":"yes","fee":"no","indoor":"no","level":"0","lit":"yes","operator:type":"public","source":"survey"}},{"type":"node","id":12052320087,"lat":52.5224842,"lon":13.4123464,"tags":{"highway":"street_lamp"}},{"type":"node","id":12052320088,"lat":52.5225023,"lon":13.4123463,"tags":{"man_made":"manhole","manhole":"drain"}}]}