{"version":0.6,"generator":"Overpass API 0.7.62.5 1bd436f1","osm3s":{"timestamp_osm_base":"2025-03-12T11:31:09Z","copyright":"The data included in this document is from www.openstreetmap.org. The data is made available under ODbL."},"elements":[{"type":"node","id":440937810,"lat":52.5225224,"lon":13.4082173,"tags":{"amenity":"fountain","artist_name":"Gerhard Thieme","name":"Markthallenbrunnen","website":"https:\/\/www.stadtentwicklung.berlin.de\/bauen\/brunnen\/de\/mit\/09.shtml","wikidata":"Q28924229","wikimedia_commons":"Category:Markthallenbrunnen"}},{"type":"node","id":736761005,"lat":52.522682,"lon":13.408917,"tags":{"addr:city":"Berlin","addr:country":"DE","addr:housenumber":"124","addr:place":"Stadtbahnbogen","addr:postcode":"10179","addr:suburb":"Mitte","de:strassenschluessel":"11000000000009138","source":"Geoportal Berlin: RBS-Adressen"}},{"type":"node","id":736761007,"lat":52.5226059,"lon":13.4090883,"tags":{"addr:city":"Berlin","addr:country":"DE","addr:housenumber":"123","addr:place":"Stadtbahnbogen","addr:postcode":"10179","addr:suburb":"Mitte","de:strassenschluessel":"11000000000009138","source":"Geoportal Berlin: RBS-Adressen"}},{"type":"node","id":998460922,"lat":52.5225456,"lon":13.4088739,"tags":{"addr:city":"Berlin","addr:country":"DE","addr:housenumber":"11","addr:postcode":"10178","addr:street":"Karl-Liebknecht-Stra\u00dfe","addr:suburb":"Mitte","check_date":"2023-06-28","contact:email":"bovi@marktschenke.de","contact:website":"http:\/\/marktschenke.de","cuisine":"german","disused:amenity":"pub","name":"Marktschenke","opening_hours":"Mo-Sa 11:00+; Su 12:00+","operator":"Matthias Bovensiepen","smoking":"outside","toilets:wheelchair":"no","wheelchair":"yes"}},{"type":"node","id":1816004561,"lat":52.5222884,"lon":13.4083594,"tags":{"addr:city":"Berlin","addr:country":"DE","addr:housenumber":"13","addr:postcode":"10178","addr:street":"Karl-Liebknecht-Stra\u00dfe","addr:suburb":"Mitte","amenity":"fast_food","cuisine":"german","delivery":"yes","indoor_seating":"no","level":"0","name":"Berlin Currys","outdoor_seating":"yes","takeaway":"yes","website":"https:\/\/www.berlincurrys.de\/","wheelchair":"yes"}},{"type":"node","id":1827996741,"lat":52.5223458,"lon":13.4089639,"tags":{"leaf_cycle":"deciduous","leaf_type":"broadleaved","natural":"tree"}},{"type":"node","id":1827996746,"lat":52.5223827,"lon":13.4090327,"tags":{"leaf_cycle":"deciduous","leaf_type":"broadleaved","natural":"tree"}},{"type":"node","id":1827996748,"lat":52.5223977,"lon":13.408887,"tags":{"leaf_cycle":"deciduous","leaf_type":"broadleaved","natural":"tree"}},{"type":"node","id":1827996753,"lat":52.5224351,"lon":13.4089668,"tags":{"leaf_cycle":"deciduous","leaf_type":"broadleaved","natural":"tree"}},{"type":"node","id":1827996761,"lat":52.5224559,"lon":13.4088199,"tags":{"leaf_cycle":"deciduous","leaf_type":"broadleaved","natural":"tree"}},{"type":"node","id":1827996791,"lat":52.5225019,"lon":13.4087517,"tags":{"leaf_cycle":"deciduous","leaf_type":"broadleaved","natural":"tree"}},{"type":"node","id":2020059473,"lat":52.5227629,"lon":13.4084173,"tags":{"amenity":"fast_food","cuisine":"kebab","name":"Ali Baba Bistro","wheelchair":"no"}},{"type":"node","id":2451511156,"lat":52.5228094,"lon":13.4080849,"tags":{"addr:city":"Berlin","addr:country":"DE","addr:housenumber":"14e","addr:postcode":"10178","addr:street":"Rochstra\u00dfe","addr:suburb":"Mitte"}},{"type":"node","id":3106078788,"lat":52.5227889,"lon":13.4085756,"tags":{"operator":"DB Netz AG","railway":"milestone","railway:milestone:catenary_mast":"yes","railway:position":"2.4"}},{"type":"node","id":3106078789,"lat":52.5228253,"lon":13.4086013,"tags":{"railway":"milestone","railway:milestone:catenary_mast":"yes","railway:position":"2.4"}},{"type":"node","id":3106078790,"lat":52.522859,"lon":13.4086374,"tags":{"railway":"milestone","railway:milestone:catenary_mast":"no","railway:position":"2.4"}},{"type":"node","id":3106078791,"lat":52.5228871,"lon":13.4086603,"tags":{"railway":"milestone","railway:milestone:catenary_mast":"no","railway:position":"2.4"}},{"type":"node","id":5511605598,"lat":52.5229003,"lon":13.4083797,"tags":{"addr:city":"Berlin","addr:country":"DE","addr:housenumber":"125","addr:place":"Stadtbahnbogen","addr:postcode":"10179","addr:suburb":"Mitte","de:strassenschluessel":"11000000000009138","source":"Geoportal Berlin: RBS-Adressen"}},{"type":"node","id":9689706204,"lat":52.5224159,"lon":13.4083862,"tags":{"emergency":"fire_hydrant","fire_hydrant:position":"sidewalk","fire_hydrant:type":"underground","water_source":"main"}},{"type":"node","id":9689727246,"lat":52.5224987,"lon":13.4082157,"tags":{"emergency":"fire_hydrant","fire_hydrant:position":"sidewalk","fire_hydrant:type":"underground","water_source":"main"}},{"type":"node","id":9689730752,"lat":52.5223963,"lon":13.40845,"tags":{"emergency":"fire_hydrant","fire_hydrant:position":"sidewalk","fire_hydrant:type":"underground","water_source":"main"}},{"type":"node","id":9891678205,"lat":52.522882,"lon":13.4088175,"tags":{"crossing":"unmarked","crossing:island":"no","crossing:markings":"no","highway":"crossing","tactile_paving":"no"}},{"type":"node","id":9891678212,"lat":52.5225353,"lon":13.408607,"tags":{"ele":"36.0"}},{"type":"node","id":9891723325,"lat":52.5228807,"lon":13.4089547,"tags":{"crossing":"unmarked","crossing:island":"no","crossing:markings":"no","highway":"crossing","tactile_paving":"no"}},{"type":"node","id":11608052734,"lat":52.5227899,"lon":13.4080716,"tags":{"addr:housenumber":"14e","addr:street":"Rochstra\u00dfe","check_date":"2024-02-10","name":"Japan Plaza","opening_hours":"Mo-Sa 09:00-20:00","shop":"convenience","wheelchair":"yes"}},{"type":"node","id":12018765219,"lat":52.5225375,"lon":13.4086862,"tags":{"addr:floor":"0","amenity":"vending_machine","check_date":"2024-06-29","covered":"no","currency:EUR":"yes","indoor":"no","level":"0","opening_hours":"24\/7","operator":"Bezirksamt Mitte","payment:cash":"yes","payment:credit_cards":"yes","payment:debit_cards":"yes","source":"survey","vending":"parking_tickets"}},{"type":"node","id":12018784964,"lat":52.5226616,"lon":13.4084928,"tags":{"addr:floor":"0","amenity":"vending_machine","check_date":"2024-06-29","covered":"no","currency:EUR":"yes","indoor":"no","level":"0","opening_hours":"24\/7","operator":"Bezirksamt Mitte","payment:cash":"yes","payment:credit_cards":"yes","payment:debit_cards":"yes","source":"survey","vending":"parking_tickets"}}]}