{"version":0.6,"generator":"Overpass API 0.7.62.5 1bd436f1","osm3s":{"timestamp_osm_base":"2025-03-12T11:27:05Z","copyright":"The data included in this document is from www.openstreetmap.org. The data is made available under ODbL."},"elements":[{"type":"node","id":793542598,"lat":52.519722,"lon":13.4140974,"tags":{"amenity":"vending_machine","check_date":"2024-04-26","note":"position estimated","operator":"Fixpunkt","payment:coins":"yes","vending":"syringes","vending:ascorbic_acid":"yes","vending:condoms":"yes","vending:syringes":"yes"}},{"type":"node","id":2953926275,"lat":52.5197889,"lon":13.4141595,"tags":{"direction":"forward","highway":"give_way"}},{"type":"node","id":3179627076,"lat":52.519783,"lon":13.4140436,"tags":{"barrier":"kerb","kerb":"lowered","tactile_paving":"no"}},{"type":"node","id":3179627077,"lat":52.5198176,"lon":13.414119,"tags":{"crossing":"unmarked","crossing:island":"no","crossing:markings":"no","highway":"crossing","kerb":"lowered","tactile_paving":"no"}},{"type":"node","id":3179627078,"lat":52.5198486,"lon":13.4141867,"tags":{"barrier":"kerb","kerb":"lowered","tactile_paving":"no"}},{"type":"node","id":3180211044,"lat":52.5201307,"lon":13.4136304,"tags":{"barrier":"kerb","kerb":"lowered","tactile_paving":"no"}},{"type":"node","id":3180211045,"lat":52.5201576,"lon":13.4136942,"tags":{"barrier":"kerb","kerb":"flush","tactile_paving":"no"}},{"type":"node","id":3867910432,"lat":52.5201515,"lon":13.4139283,"tags":{"bus":"yes","local_ref":"17","name":"S+U Alexanderplatz\/Grunerstra\u00dfe","name:BVG":"S+U Alexanderplatz\/Grunerstra\u00dfe [Grunerstra\u00dfe]","public_transport":"stop_position","ref:BVG":"106417","website":"https:\/\/qr.bvg.de\/h106417"}},{"type":"node","id":3907105048,"lat":52.5196716,"lon":13.4136011,"tags":{"bus":"yes","name":"Littenstra\u00dfe","public_transport":"stop_position","ref:BVG":"107596","website":"https:\/\/qr.bvg.de\/h107596"}},{"type":"node","id":3907105051,"lat":52.5196232,"lon":13.4136866,"tags":{"bench":"no","bin":"no","bus":"yes","highway":"bus_stop","lit":"yes","name":"Littenstra\u00dfe","public_transport":"platform","shelter":"no","tactile_paving":"no"}},{"type":"node","id":4311940492,"lat":52.5198684,"lon":13.414405,"tags":{"addr:city":"Berlin","level":"-1","name":"Friese Tabakwaren","opening_hours":"Mo-Sa 10:00-21:00","shop":"convenience","wheelchair":"no"}},{"type":"node","id":5511604128,"lat":52.5195749,"lon":13.4140782,"tags":{"addr:city":"Berlin","addr:country":"DE","addr:housenumber":"110","addr:place":"Stadtbahnbogen","addr:postcode":"10179","addr:suburb":"Mitte","de:strassenschluessel":"11000000000009138","source":"Geoportal Berlin: RBS-Adressen"}},{"type":"node","id":7945564303,"lat":52.5195473,"lon":13.4144193,"tags":{"highway":"street_lamp"}},{"type":"node","id":7945564304,"lat":52.5195832,"lon":13.4145612,"tags":{"highway":"street_lamp"}},{"type":"node","id":7945564305,"lat":52.5196327,"lon":13.4142949,"tags":{"highway":"street_lamp"}},{"type":"node","id":7945564306,"lat":52.5196938,"lon":13.4144049,"tags":{"highway":"street_lamp"}},{"type":"node","id":7945564307,"lat":52.5197632,"lon":13.4140979,"tags":{"highway":"street_lamp"}},{"type":"node","id":7945564308,"lat":52.5198274,"lon":13.4142032,"tags":{"highway":"street_lamp"}},{"type":"node","id":7945564311,"lat":52.5198089,"lon":13.4135501,"tags":{"highway":"street_lamp"}},{"type":"node","id":8042862858,"lat":52.5199561,"lon":13.414566,"tags":{"addr:city":"Berlin","addr:housenumber":"20","addr:postcode":"10179","addr:street":"Grunerstra\u00dfe","amenity":"restaurant","cuisine":"burger","diet:vegan":"only","diet:vegetarian":"only","indoor_seating":"yes","level":"2","name":"Vedang","opening_hours":"Mo-Sa 11:00-20:00; Su off","outdoor_seating":"no","website":"https:\/\/vedang.de"}},{"type":"node","id":8091138785,"lat":52.5199781,"lon":13.4139102,"tags":{"highway":"street_lamp"}},{"type":"node","id":8091138786,"lat":52.5201211,"lon":13.4142005,"tags":{"highway":"street_lamp"}},{"type":"node","id":10800109289,"lat":52.5198991,"lon":13.4141786,"tags":{"camera:direction":"150","camera:mount":"wall","camera:type":"fixed","man_made":"surveillance","surveillance":"public","surveillance:type":"camera"}},{"type":"node","id":10800172332,"lat":52.5200021,"lon":13.4144396,"tags":{"camera:direction":"80","camera:mount":"wall","camera:type":"fixed","man_made":"surveillance","surveillance":"outdoor","surveillance:type":"camera"}},{"type":"node","id":11238390333,"lat":52.519644,"lon":13.4137508,"tags":{"man_made":"manhole"}},{"type":"node","id":11238390334,"lat":52.5196536,"lon":13.413808,"tags":{"man_made":"manhole"}},{"type":"node","id":11427599941,"lat":52.5196603,"lon":13.4140707,"tags":{"railway":"signal","railway:signal:direction":"backward","railway:signal:electricity":"DE-ESO:el1","railway:signal:electricity:form":"sign","railway:signal:electricity:height":"dwarf","railway:signal:electricity:turn_direction":"right","railway:signal:electricity:type":"power_off","railway:signal:position":"left"}},{"type":"node","id":11427599945,"lat":52.5195841,"lon":13.4141726,"tags":{"operator":"DB InfraGO AG","railway":"switch","railway:switch":"default"}}]}