{"version":0.6,"generator":"Overpass API 0.7.62.5 1bd436f1","osm3s":{"timestamp_osm_base":"2025-03-12T11:46:16Z","copyright":"The data included in this document is from www.openstreetmap.org. The data is made available under ODbL."},"elements":[{"type":"way","id":579003125,"nodes":[5546085751,316077475],"tags":{"alt_name":"Cundinamarca","highway":"tertiary","lanes":"3","name":"Carrera 53","oneway":"yes","surface":"asphalt","turn:lanes":"left;through|through|through"}},{"type":"way","id":711876987,"nodes":[6693540945,6693540946,6693540947,6693540948,6693540949,6693540950,6693540945],"tags":{"building":"house"}},{"type":"way","id":1020975658,"nodes":[316077475,316076855,316076844],"tags":{"alt_name":"Pichincha","highway":"tertiary","lanes":"2","name":"Calle 48","oneway":"yes","surface":"asphalt"}},{"type":"way","id":1363178852,"nodes":[12621550112,12621550113,12621550114,12621550115,12621550112],"tags":{"addr:city":"Medell\u00edn","addr:street":"Carrera 53","building":"yes","name":"Centro comercial Megacentro","operator":"Megacentro","shop":"mall"}},{"type":"node","id":316077475,"lat":6.2488405,"lon":-75.5711419},{"type":"node","id":5546085751,"lat":6.248374,"lon":-75.5713471},{"type":"node","id":6693540945,"lat":6.2479799,"lon":-75.5715884},{"type":"node","id":6693540946,"lat":6.2483154,"lon":-75.5725347},{"type":"node","id":6693540947,"lat":6.2484851,"lon":-75.5724739},{"type":"node","id":6693540948,"lat":6.2485045,"lon":-75.5724282},{"type":"node","id":6693540949,"lat":6.2486541,"lon":-75.5723746},{"type":"node","id":6693540950,"lat":6.248331,"lon":-75.5714625},{"type":"node","id":12621550112,"lat":6.2488209,"lon":-75.5711292},{"type":"node","id":12621550113,"lat":6.2483864,"lon":-75.5713221},{"type":"node","id":12621550114,"lat":6.2482017,"lon":-75.5708514},{"type":"node","id":12621550115,"lat":6.248652,"lon":-75.5706921},{"type":"node","id":316076844,"lat":6.2495096,"lon":-75.5730349},{"type":"node","id":316076855,"lat":6.2492372,"lon":-75.5722137}]}