{"version":0.6,"generator":"Overpass API 0.7.62.5 1bd436f1","osm3s":{"timestamp_osm_base":"2025-03-12T12:14:59Z","copyright":"The data included in this document is from www.openstreetmap.org. The data is made available under ODbL."},"elements":[{"type":"node","id":343390554,"lat":60.1877531,"lon":24.954533,"tags":{"ele":"26","source:ele":"barometric*1"}},{"type":"node","id":343390629,"lat":60.1876395,"lon":24.9557144,"tags":{"addr:country":"FI","addr:housenumber":"2","addr:street":"Helsinginkuja"}},{"type":"node","id":1526055520,"lat":60.1873805,"lon":24.9557614,"tags":{"addr:city":"Helsinki","addr:country":"FI","addr:housenumber":"13","addr:postcode":"00500","addr:street":"Helsinginkatu","addr:unit":"C","amenity":"bar","brewery":"yes","name":"Hesari 13","opening_hours":"Su-Th 16:00-02:00; Fr-Sa 16:00-04:00","outdoor_seating":"yes","website":"http:\/\/www.barhesari.fi\/"}},{"type":"node","id":1857439531,"lat":60.187671,"lon":24.9547135,"tags":{"entrance":"staircase","ref":"E"}},{"type":"node","id":1857439532,"lat":60.187672,"lon":24.9549327,"tags":{"entrance":"staircase","ref":"D"}},{"type":"node","id":1857439533,"lat":60.187673,"lon":24.9551637,"tags":{"entrance":"staircase","ref":"C"}},{"type":"node","id":2434557354,"lat":60.1876772,"lon":24.9552793,"tags":{"traffic_sign":"FI:372","traffic_sign:2":"FI:855a[9-21]","traffic_sign:3":"FI:871[Vy\u00f6hyke 3 Ei koske P-tunnuksella J]"}},{"type":"node","id":2434557356,"lat":60.1877823,"lon":24.9555337,"tags":{"traffic_sign":"FI:372","traffic_sign:2":"FI:855a[9-21]","traffic_sign:3":"FI:871[Vy\u00f6hyke 3 Ei koske P-tunnuksella J]"}},{"type":"node","id":3017656262,"lat":60.1876806,"lon":24.9546469,"tags":{"traffic_sign":"FI:372","traffic_sign:2":"FI:855a[9-21]","traffic_sign:3":"FI:871[Vy\u00f6hyke 3 Ei koske P-tunnuksella J]"}},{"type":"node","id":3017656263,"lat":60.1876835,"lon":24.9549788,"tags":{"traffic_sign":"FI:372","traffic_sign:2":"FI:851[8-17]"}},{"type":"node","id":3017656266,"lat":60.1877727,"lon":24.9545872,"tags":{"traffic_sign":"FI:372"}},{"type":"node","id":3841553052,"lat":60.187402,"lon":24.9555055,"tags":{"addr:housenumber":"13","addr:postcode":"00500","addr:street":"Helsinginkatu"}},{"type":"node","id":6783371246,"lat":60.1873711,"lon":24.9556224,"tags":{"addr:city":"Helsinki","addr:housenumber":"13","addr:postcode":"00500","addr:street":"Helsinginkatu","addr:unit":"C","amenity":"bar","name":"Relaxin","outdoor_seating":"yes"}},{"type":"node","id":9532450057,"lat":60.1873369,"lon":24.9552545,"tags":{"addr:city":"Helsinki","addr:housenumber":"15","addr:postcode":"00500","addr:street":"Helsinginkatu","amenity":"cafe","brand":"Round","cuisine":"coffee_shop;donut;dessert;brunch;bagel;breakfast","delivery":"yes","diet:halal":"no","diet:kosher":"no","diet:vegan":"yes","email":"vegaanisiadonitseja@round.fi","internet_access":"yes","internet_access:fee":"no","name":"Round Kallio Caf\u00e9","phone":"+358 50 3655655","takeaway":"yes","website":"https:\/\/www.round.fi\/"}}]}