{"version":0.6,"generator":"Overpass API 0.7.61.5 4133829e","osm3s":{"timestamp_osm_base":"2023-08-13T09:22:30Z","copyright":"The data included in this document is from www.openstreetmap.org. The data is made available under ODbL."},"elements":[{"type":"node","id":320278125,"lat":60.1622916,"lon":24.9461757,"tags":{"barrier":"bollard","bicycle":"yes","foot":"yes"}},{"type":"node","id":436392403,"lat":60.1616319,"lon":24.9462596,"tags":{"barrier":"bollard","bicycle":"yes","foot":"yes"}},{"type":"node","id":507010521,"lat":60.1616499,"lon":24.9463665,"tags":{"crossing":"marked","highway":"crossing"}},{"type":"node","id":507055671,"lat":60.1616958,"lon":24.9466821,"tags":{"addr:city":"Helsinki","addr:country":"FI","addr:housenumber":"15","addr:street":"Korkeavuorenkatu"}},{"type":"node","id":507055672,"lat":60.1618334,"lon":24.9464896,"tags":{"traffic:hourly:11:Fr:fall:backward":"114\/20:00","traffic:hourly:11:Fr:fall:forward":"126\/20:00"}},{"type":"node","id":507055673,"lat":60.1616513,"lon":24.9464115,"tags":{"crossing":"marked","crossing:island":"no","highway":"crossing","traffic:hourly:11:Fr:fall:backward":"171\/20:00","traffic:hourly:11:Fr:fall:forward":"117\/20:00"}},{"type":"node","id":507055674,"lat":60.1618322,"lon":24.9462701,"tags":{"traffic:hourly:11:Fr:fall:backward":"66\/20:00","traffic:hourly:11:Fr:fall:forward":"<3\/20:00"}},{"type":"node","id":738548382,"lat":60.1619868,"lon":24.9464228,"tags":{"FIXME:pipeline":"Sijainti liikkuvasta autosta.","hole:diameter":"40cm","man_made":"manhole","manhole":"gas"}},{"type":"node","id":1519800269,"lat":60.1619071,"lon":24.9465546,"tags":{"addr:city":"Helsinki","addr:country":"FI","addr:postcode":"00130","addr:street":"Korkeavuorenkatu","amenity":"fast_food","cuisine":"pizza","diet:halal":"no","diet:kosher":"no","name":"Mimosa","opening_hours":"Mo-Th 11:00-22:30; Fr-Sa 10:00-05:00; Su 12:00-22:30","payment:credit_cards":"yes","payment:debit_cards":"yes","phone":"636476"}},{"type":"node","id":2516171785,"lat":60.1616663,"lon":24.9462613,"tags":{"traffic_sign":"FI:511"}},{"type":"node","id":2516171786,"lat":60.1616321,"lon":24.946528,"tags":{"traffic_sign":"FI:511"}},{"type":"node","id":2516171788,"lat":60.1617011,"lon":24.9462567,"tags":{"traffic_sign":"FI:521","traffic_sign:2":"FI:855b[9-21]","traffic_sign:3":"FI:871[Vy\u00f6hyke 2 Ei koske P-tunnuksella C]","traffic_sign:4":"FI:845","traffic_sign:5":"FI:828"}},{"type":"node","id":2524145015,"lat":60.1621236,"lon":24.9462065,"tags":{"traffic_sign":"FI:521","traffic_sign:2":"FI:855b[9-21]","traffic_sign:3":"FI:871[Vy\u00f6hyke 2 Ei koske P-tunnuksella C]","traffic_sign:4":"FI:845","traffic_sign:5":"FI:871[Lippuautomaatti \u2192]"}},{"type":"node","id":3340724534,"lat":60.1616268,"lon":24.9462372,"tags":{"traffic_sign":"FI:373","traffic_sign:2":"FI:871[Yksityisalue]","traffic_sign:3":"FI:871[Pelastustie]"}},{"type":"node","id":3340724540,"lat":60.1621438,"lon":24.9460003,"tags":{"traffic_sign":"FI:323"}},{"type":"node","id":3340724541,"lat":60.1621632,"lon":24.9459759,"tags":{"barrier":"lift_gate","motor_vehicle":"private"}},{"type":"node","id":3340724543,"lat":60.1622012,"lon":24.9461997,"tags":{"barrier":"bollard"}},{"type":"node","id":3340724545,"lat":60.1622363,"lon":24.9461599,"tags":{"traffic_sign":"FI:373","traffic_sign:2":"FI:Helsinki:kunnallinen_pys\u00e4k\u00f6inninvalvonta"}},{"type":"node","id":4716514960,"lat":60.1619676,"lon":24.9465911,"tags":{"addr:city":"Helsinki","addr:country":"FI","addr:postcode":"00130","addr:street":"Korkeavuorenkatu","amenity":"theatre","name":"H\u00f6yhent\u00e4m\u00f6","name:en":"No Name Theatre","name:fi":"H\u00f6yhent\u00e4m\u00f6","website":"http:\/\/www.hoyhentamo.fi"}},{"type":"node","id":4718446512,"lat":60.1617863,"lon":24.9465566,"tags":{"addr:city":"Helsinki","addr:country":"FI","addr:postcode":"00130","addr:street":"Korkeavuorenkatu","clothes":"suits","name":"Bretelle","payment:credit_cards":"yes","payment:debit_cards":"yes","shop":"clothes","website":"https:\/\/www.bretelle.fi\/"}},{"type":"node","id":4718446524,"lat":60.1616382,"lon":24.9465888,"tags":{"addr:city":"Helsinki","addr:country":"FI","addr:postcode":"00130","addr:street":"Korkeavuorenkatu","check_date:opening_hours":"2021-12-18","name":"Eiring","opening_hours":"Mo-Fr 10:00-18:00; Sa 10:00-16:00; PH off","payment:credit_cards":"yes","payment:debit_cards":"yes","phone":"+358503477586","shop":"kitchen","website":"https:\/\/eiring.fi\/"}},{"type":"node","id":4745463987,"lat":60.1622429,"lon":24.9464936,"tags":{"addr:city":"Helsinki","addr:country":"FI","addr:postcode":"00130","addr:street":"Korkeavuorenkatu","name":"Sir","payment:credit_cards":"yes","payment:debit_cards":"yes","shop":"hairdresser"}},{"type":"node","id":4745463991,"lat":60.1618521,"lon":24.9465449,"tags":{"addr:city":"Helsinki","addr:country":"FI","addr:postcode":"00130","addr:street":"Korkeavuorenkatu","name":"Hepsankeikka","opening_hours":"Tu-Fr 11:00-17:30; Sa 11:00-14:30; PH off","payment:credit_cards":"yes","payment:debit_cards":"yes","shop":"second_hand","website":"https:\/\/www.facebook.com\/Hepsankeikka-593817494080512\/"}},{"type":"node","id":4745463997,"lat":60.1619825,"lon":24.9465347,"tags":{"addr:city":"Helsinki","addr:country":"FI","addr:postcode":"00130","addr:street":"Korkeavuorenkatu","name":"Idylle","opening_hours":"Tu-Fr 11:00-17:00; Sa 11:00-14:00; PH off","payment:credit_cards":"yes","payment:debit_cards":"yes","shop":"clothes","website":"idylle.fi"}},{"type":"node","id":4934445364,"lat":60.1621649,"lon":24.9465089,"tags":{"name":"Caine Clothiers","payment:credit_cards":"yes","payment:debit_cards":"yes","shop":"clothes"}},{"type":"node","id":5368320186,"lat":60.1617282,"lon":24.9465648,"tags":{"name":"The Butler","payment:credit_cards":"yes","payment:debit_cards":"yes","shop":"clothes; laundry","website":"www.thebutler.fi"}},{"type":"node","id":6684027383,"lat":60.1620492,"lon":24.946528,"tags":{"name":"Perhe ja perint\u00f6 J. Pakarinen oy","office":"company","website":"https:\/\/perhejaperinto.fi\/"}},{"type":"node","id":6684027384,"lat":60.1620172,"lon":24.9465441,"tags":{"name":"DMK Cinema Secrets","office":"company"}},{"type":"node","id":7668804041,"lat":60.1622735,"lon":24.9464601,"tags":{"access":"private","addr:housenumber":"19","addr:street":"Korkeavuorenkatu","description":"With keycode","entrance":"main","wheelchair":"yes"}},{"type":"node","id":7668804043,"lat":60.162238,"lon":24.9464645,"tags":{"access":"yes","addr:housenumber":"19","addr:street":"Korkeavuorenkatu","entrance":"secondary","wheelchair":"no"}},{"type":"node","id":7668804045,"lat":60.1621615,"lon":24.9464741,"tags":{"access":"yes","addr:housenumber":"19","addr:street":"Korkeavuorenkatu","entrance":"secondary","wheelchair":"no"}},{"type":"node","id":7668804047,"lat":60.1620052,"lon":24.9464936,"tags":{"access":"private","addr:housenumber":"17","addr:street":"Korkeavuorenkatu","addr:unit":"A","description":"With buzzer","entrance":"main","wheelchair":"no"}},{"type":"node","id":7668804049,"lat":60.1619773,"lon":24.9464971,"tags":{"access":"yes","addr:housenumber":"17","addr:street":"Korkeavuorenkatu","entrance":"secondary","wheelchair":"no"}},{"type":"node","id":7668804051,"lat":60.1619473,"lon":24.9465008,"tags":{"access":"private","barrier":"gate","description":"With keycode"}},{"type":"node","id":7668804054,"lat":60.1618981,"lon":24.9465069,"tags":{"access":"yes","addr:housenumber":"17","addr:street":"Korkeavuorenkatu","entrance":"secondary","wheelchair":"no"}},{"type":"node","id":7668804056,"lat":60.1618419,"lon":24.9465139,"tags":{"access":"yes","addr:housenumber":"17","addr:street":"Korkeavuorenkatu","entrance":"secondary","wheelchair":"no"}},{"type":"node","id":7668804058,"lat":60.1617626,"lon":24.9465237,"tags":{"access":"yes","addr:housenumber":"15","addr:street":"Korkeavuorenkatu","entrance":"secondary","wheelchair":"no"}},{"type":"node","id":7668804060,"lat":60.1616496,"lon":24.9465379,"tags":{"access":"yes","addr:housenumber":"15","addr:street":"Korkeavuorenkatu","entrance":"secondary","wheelchair":"no"}},{"type":"node","id":7668804062,"lat":60.1616445,"lon":24.9465385,"tags":{"access":"private","addr:housenumber":"15","addr:street":"Korkeavuorenkatu","addr:unit":"A","description":"With buzzer","entrance":"staircase","wheelchair":"no"}},{"type":"node","id":7668804064,"lat":60.1619464,"lon":24.9464776,"tags":{"crossing":"unmarked","highway":"crossing"}},{"type":"node","id":7673355488,"lat":60.1617556,"lon":24.9465246,"tags":{"access":"private","addr:housenumber":"15","addr:street":"Korkeavuorenkatu","addr:unit":"B","description":"With buzzer","entrance":"main","wheelchair":"no"}},{"type":"node","id":7673355489,"lat":60.1617477,"lon":24.9465255,"tags":{"access":"yes","addr:housenumber":"15","addr:street":"Korkeavuorenkatu","entrance":"secondary","wheelchair":"no"}}]}