{"version":0.6,"generator":"Overpass API 0.7.62.5 1bd436f1","osm3s":{"timestamp_osm_base":"2025-03-12T12:43:15Z","copyright":"The data included in this document is from www.openstreetmap.org. The data is made available under ODbL."},"elements":[{"type":"node","id":1406291235,"lat":60.1908673,"lon":24.9609608,"tags":{"addr:city":"Helsinki","addr:country":"FI","addr:housenumber":"2","addr:postcode":"00510","addr:street":"V\u00e4\u00e4ksynkuja"}},{"type":"node","id":1406291236,"lat":60.1912696,"lon":24.9605445,"tags":{"addr:city":"Helsinki","addr:country":"FI","addr:housenumber":"4","addr:postcode":"00510","addr:street":"V\u00e4\u00e4ksynkuja"}},{"type":"node","id":1406298488,"lat":60.191376,"lon":24.9602358,"tags":{"addr:city":"Helsinki","addr:country":"FI","addr:housenumber":"12","addr:postcode":"00510","addr:street":"P\u00e4ij\u00e4nteentie"}},{"type":"node","id":6263207539,"lat":60.191197,"lon":24.9604693,"tags":{"addr:city":"Helsinki","addr:housenumber":"4","addr:postcode":"00510","addr:street":"V\u00e4\u00e4ksynkuja","government":"tax","name":"Verohallinto, p\u00e4\u00e4konttori","office":"government","website":"https:\/\/www.vero.fi\/henkiloasiakkaat\/"}},{"type":"node","id":8828339307,"lat":60.1910921,"lon":24.9609151,"tags":{"camera:type":"fixed","man_made":"surveillance","surveillance:type":"camera"}},{"type":"node","id":8828341185,"lat":60.1913271,"lon":24.960676,"tags":{"man_made":"surveillance","surveillance:type":"camera"}},{"type":"node","id":8828341717,"lat":60.1913682,"lon":24.9605855,"tags":{"camera:type":"fixed","man_made":"surveillance","surveillance:type":"camera"}}]}