{"version":0.6,"generator":"Overpass API 0.7.62.5 1bd436f1","osm3s":{"timestamp_osm_base":"2025-03-12T12:21:59Z","copyright":"The data included in this document is from www.openstreetmap.org. The data is made available under ODbL."},"elements":[{"type":"node","id":316249020,"lat":60.1857153,"lon":24.9517428,"tags":{"addr:city":"Helsinki","addr:country":"FI","addr:housenumber":"9","addr:street":"Kaarlenkatu"}},{"type":"node","id":316249945,"lat":60.1854042,"lon":24.9529632,"tags":{"crossing":"uncontrolled","crossing:island":"no","highway":"crossing"}},{"type":"node","id":316249946,"lat":60.1855207,"lon":24.9527909,"tags":{"crossing":"uncontrolled","crossing:island":"no","highway":"crossing"}},{"type":"node","id":893930399,"lat":60.1854,"lon":24.952049,"tags":{"addr:city":"Helsinki","addr:country":"FI","addr:housenumber":"26","addr:street":"Franz\u00e9ninkatu"}},{"type":"node","id":1029533141,"lat":60.1857626,"lon":24.9529871,"tags":{"addr:city":"Helsinki","addr:country":"FI","addr:housenumber":"10","addr:street":"Fleminginkatu"}},{"type":"node","id":1029533161,"lat":60.1856476,"lon":24.952625,"tags":{"addr:city":"Helsinki","addr:country":"FI","addr:housenumber":"23","addr:street":"Franz\u00e9ninkatu"}},{"type":"node","id":1029533171,"lat":60.1853312,"lon":24.9527139,"tags":{"addr:city":"Helsinki","addr:country":"FI","addr:housenumber":"8","addr:street":"Fleminginkatu"}},{"type":"node","id":2434573020,"lat":60.1855936,"lon":24.9522766,"tags":{"traffic_sign":"FI:372","traffic_sign:2":"FI:871[Yksityisalue]","traffic_sign:3":"FI:342[2.5 m]"}},{"type":"node","id":2434573885,"lat":60.1853764,"lon":24.9528459,"tags":{"traffic_sign":"FI:372","traffic_sign:2":"FI:855a[9-21]","traffic_sign:3":"FI:871[Vy\u00f6hyke 3 Ei koske P-tunnuksella I]","traffic_sign:4":"FI:871[Lippuautomaatti \u2192]"}},{"type":"node","id":2434573887,"lat":60.1854762,"lon":24.9527963,"tags":{"kerb":"lowered"}},{"type":"node","id":2434573888,"lat":60.1854687,"lon":24.9527557,"tags":{"traffic_sign":"FI:511"}},{"type":"node","id":2434573889,"lat":60.1855727,"lon":24.9527858,"tags":{"kerb":"lowered"}},{"type":"node","id":2434573894,"lat":60.1854042,"lon":24.9528616,"tags":{"kerb":"lowered"}},{"type":"node","id":2434573895,"lat":60.185405,"lon":24.9530349,"tags":{"kerb":"lowered"}},{"type":"node","id":2505694995,"lat":60.1853039,"lon":24.952791,"tags":{"barrier":"gate"}},{"type":"node","id":2505694999,"lat":60.1853337,"lon":24.9527879,"tags":{"entrance":"shop"}},{"type":"node","id":2505695001,"lat":60.1854445,"lon":24.9527688,"tags":{"FIXME:pipeline":"Sijainti vain tuuletusputkesta.","manhole":"heat"}},{"type":"node","id":2505695002,"lat":60.1856081,"lon":24.952739,"tags":{"traffic_sign":"FI:372","traffic_sign:2":"FI:855a[9-21]","traffic_sign:3":"FI:871[Vy\u00f6hyke 3 Ei koske P-tunnuksella I]","traffic_sign:4":"FI:871[Lippuautomaatti \u2192]"}},{"type":"node","id":3273443797,"lat":60.185398,"lon":24.9525025,"tags":{"addr:housenumber":"24","addr:street":"Franz\u00e9ninkatu"}},{"type":"node","id":3273443798,"lat":60.1856469,"lon":24.9520328,"tags":{"addr:housenumber":"25","addr:street":"Franz\u00e9ninkatu"}},{"type":"node","id":6787322411,"lat":60.1853868,"lon":24.9527252,"tags":{"amenity":"restaurant","cuisine":"pizza","diet:halal":"no","diet:kosher":"no","name":"Skiffer","opening_hours":"Mo-Tu 11:00-20:00; We-Th 11:00-21:00; Fr 10:45-22:00; Sa 12:00-22:00; Su 12:00-20:00","payment:credit_cards":"yes","payment:debit_cards":"yes","website":"https:\/\/skiffer.fi\/","wheelchair":"no"}},{"type":"node","id":8852655386,"lat":60.1859534,"lon":24.9530169,"tags":{"addr:housenumber":"12a","addr:street":"Fleminginkatu","level":"0","name":"Lucky you studio","opening_hours":"Mo-Fr 11:00-18:00; Sa 11:00-16:00","payment:credit_cards":"yes","payment:debit_cards":"yes","shop":"tattoo"}},{"type":"node","id":8852655389,"lat":60.1859174,"lon":24.9530209,"tags":{"addr:housenumber":"12a","addr:street":"Fleminginkatu","name":"Kohina creative","payment:credit_cards":"yes","payment:debit_cards":"yes","shop":"yes"}},{"type":"node","id":8852655390,"lat":60.1856747,"lon":24.9530068,"tags":{"access":"yes","addr:housenumber":"10","addr:street":"Fleminginkatu","entrance":"yes","wheelchair":"no"}},{"type":"node","id":8852655392,"lat":60.1857189,"lon":24.9530221,"tags":{"addr:housenumber":"10","addr:street":"Fleminginkatu","amenity":"bar","level":"1","name":"Bar 10","opening_hours":"Mo-Th 11:00-00:00; Sa 12:00-02:00; Fr 11:00-02:00; Su 12:00-00:00","payment:credit_cards":"yes","payment:debit_cards":"yes"}},{"type":"node","id":8852655394,"lat":60.1856706,"lon":24.9528554,"tags":{"access":"private","barrier":"gate","description":"With buzzer"}},{"type":"node","id":8852655396,"lat":60.1856036,"lon":24.9526979,"tags":{"access":"yes","addr:housenumber":"23","addr:street":"Franz\u00e9ninkatu","entrance":"yes","wheelchair":"no"}},{"type":"node","id":8852655398,"lat":60.1856509,"lon":24.9527182,"tags":{"addr:city":"Helsinki","addr:housenumber":"10","addr:postcode":"00530","addr:street":"Fleminginkatu","addr:unit":"A2","amenity":"restaurant","cuisine":"salad;pasta","diet:halal":"no","diet:kosher":"no","diet:vegan":"yes","diet:vegetarian":"yes","email":"feedme@greenhippocafe.rocks","level":"1","name":"Green Hippo","opening_hours":"Mo-Th 08:00-21:00; Fr 08:00-22:00; Sa 09:00-22:00","outdoor_seating":"yes","payment:credit_cards":"yes","payment:debit_cards":"yes","phone":"+358505511652","website":"https:\/\/www.greenhippocafe.rocks\/kallio"}},{"type":"node","id":8852655399,"lat":60.1855989,"lon":24.9525052,"tags":{"access":"private","addr:housenumber":"23","addr:street":"Franz\u00e9ninkatu","addr:unit":"A","description":"With buzzer","entrance":"staircase","wheelchair":"no"}},{"type":"node","id":8852655401,"lat":60.1855913,"lon":24.9521976,"tags":{"access":"yes","barrier":"gate","height":"2.5"}},{"type":"node","id":8852655405,"lat":60.1855851,"lon":24.9519571,"tags":{"access":"yes","barrier":"gate","description":"With keycode"}},{"type":"node","id":8856566811,"lat":60.1859428,"lon":24.9530044,"tags":{"addr:city":"Helsinki","addr:housenumber":"12b","addr:postcode":"00500","addr:street":"Fleminginkatu","name":"Mustan Kanin Kolo","opening_hours":"Tu-Fr 14:00-20:00; Sa 12:00-18:00; Su 14:00-17:00","phone":"+358 44 577 9057","second_hand":"only","shop":"books","website":"https:\/\/mustankaninkolo.info\/"}},{"type":"node","id":10832468921,"lat":60.1853265,"lon":24.95175,"tags":{"addr:housenumber":"7","addr:street":"Kaarlenkatu","amenity":"fast_food","branch":"Kallio","check_date":"2023-04-22","cuisine":"burger","diet:vegan":"no","diet:vegetarian":"no","name":"Kot.","website":"https:\/\/www.kotkot.world\/"}}]}