{"version":0.6,"generator":"Overpass API 0.7.62.5 1bd436f1","osm3s":{"timestamp_osm_base":"2025-03-12T12:15:59Z","copyright":"The data included in this document is from www.openstreetmap.org. The data is made available under ODbL."},"elements":[{"type":"node","id":392411393,"lat":60.1893489,"lon":24.9535365,"tags":{"bench":"no","bin":"no","bus":"yes","departures_board":"no","highway":"bus_stop","kaukoliikenne":"yes","lit":"no","network":"HSL","network:wikidata":"Q473211","note":"Bus stop moved to temporal location. Name and ref tags removed temporally.","public_transport":"platform","shelter":"no","was:name":"Fleminginkatu","was:name:fi":"Fleminginkatu","was:name:sv":"Flemingsgatan","was:ref":"H2156","website":"https:\/\/reittiopas.hsl.fi\/pysakit\/HSL%3A1220123","wheelchair":"no","zone:HSL":"A"}},{"type":"node","id":475540676,"lat":60.1892603,"lon":24.9534404,"tags":{"addr:city":"Helsinki","addr:country":"FI","addr:housenumber":"28","addr:street":"Aleksis Kiven katu"}},{"type":"node","id":670255666,"lat":60.189361,"lon":24.953232,"tags":{"amenity":"vending_machine","check_date":"2022-07-06","currency:EUR":"yes","opening_hours":"Mo-Fr 09:00-19:00","operator":"HKR","parking:ticket:zone":"3","payment:coins":"yes","ref":"251","vending":"parking_tickets"}},{"type":"node","id":1525453986,"lat":60.1886904,"lon":24.9532196,"tags":{"addr:city":"Helsinki","addr:housenumber":"23","addr:postcode":"00500","addr:street":"Fleminginkatu","amenity":"restaurant","beer":"yes","cuisine":"kebab","diet:halal":"no","diet:kosher":"no","diet:vegan":"yes","diet:vegetarian":"yes","high_seat":"yes","indoor_seating":"yes","name":"D\u00f6ner Harju","name:en":"Doner Harju","name:fi":"D\u00f6ner Harju","opening_hours":"Mo-Th 10:30-22:00; Fr 10:30-23:00; Sa 12:00-23:00; Su 13:00-21:00","outdoor_seating":"yes","payment:credit_cards":"yes","payment:debit_cards":"yes","website":"https:\/\/donerharju.fi\/"}},{"type":"node","id":1820609481,"lat":60.1891225,"lon":24.9541598,"tags":{"note":"Raput B-D sis\u00e4pihalla"}},{"type":"node","id":1820609499,"lat":60.1892669,"lon":24.9543402,"tags":{"entrance":"staircase","ref":"B"}},{"type":"node","id":1820609500,"lat":60.1892745,"lon":24.9542168,"tags":{"man_made":"surveillance"}},{"type":"node","id":1820609501,"lat":60.1892769,"lon":24.9541689,"tags":{"barrier":"gate"}},{"type":"node","id":1820609503,"lat":60.1892929,"lon":24.9539663,"tags":{"entrance":"staircase","ref":"A"}},{"type":"node","id":1864549682,"lat":60.1889056,"lon":24.9531487,"tags":{"entrance":"staircase","ref":"A"}},{"type":"node","id":1864549686,"lat":60.1890244,"lon":24.9531365,"tags":{"entrance":"staircase","ref":"B"}},{"type":"node","id":1864549689,"lat":60.1891285,"lon":24.9531261,"tags":{"entrance":"staircase","ref":"C"}},{"type":"node","id":1864549693,"lat":60.1892847,"lon":24.9531038,"tags":{"entrance":"staircase","ref":"D"}},{"type":"node","id":2441924719,"lat":60.1892764,"lon":24.9541892,"tags":{"traffic_sign":"FI:373","traffic_sign:2":"FI:871[Yksityisalue luvaton pys\u00e4k\u00f6inti kielletty]"}},{"type":"node","id":2449559199,"lat":60.189334,"lon":24.9535364,"tags":{"traffic_sign":"FI:532","traffic_sign:2":"FI:531"}},{"type":"node","id":2451383779,"lat":60.1893354,"lon":24.9537445,"tags":{"traffic_sign":"FI:372","traffic_sign:2":"FI:855a[9-21]","traffic_sign:3":"FI:871[Vy\u00f6hyke 3 Ei koske P-tunnuksella J]","traffic_sign:4":"FI:871[Lippuautomaatti \u2192]"}},{"type":"node","id":2459428988,"lat":60.1893242,"lon":24.9531782,"tags":{"check_date":"2025-01-26","name":"Pure Hairdressing","payment:credit_cards":"yes","payment:debit_cards":"yes","shop":"hairdresser"}}]}