{"version":0.6,"generator":"Overpass API 0.7.62.5 1bd436f1","osm3s":{"timestamp_osm_base":"2025-03-12T12:44:15Z","copyright":"The data included in this document is from www.openstreetmap.org. The data is made available under ODbL."},"elements":[{"type":"node","id":512410278,"lat":60.1852638,"lon":24.9614357,"tags":{"addr:city":"Helsinki","addr:country":"FI","addr:housenumber":"3","addr:street":"Lintulahdenaukio"}},{"type":"node","id":1840662575,"lat":60.185164,"lon":24.9624923,"tags":{"barrier":"swing_gate","bicycle":"destination","foot":"destination","locked":"yes","material":"metal","motor_vehicle":"private","motorcar":"private"}},{"type":"node","id":1855956696,"lat":60.1847693,"lon":24.9624138,"tags":{"addr:flats":"1","entrance":"home"}},{"type":"node","id":1855956697,"lat":60.1848204,"lon":24.9622758,"tags":{"access":"private","addr:housenumber":"8","addr:street":"Lintulahdenaukio","description":"With buzzer","entrance":"staircase"}},{"type":"node","id":3756047995,"lat":60.185245,"lon":24.9612642,"tags":{"addr:city":"Helsinki","addr:housenumber":"17 B","addr:postcode":"00500","addr:street":"H\u00e4meentie","amenity":"driving_school","name":"Cap-Autokoulu","website":"https:\/\/cap.fi\/autokoulu\/helsinki-hameentie"}},{"type":"node","id":6190144689,"lat":60.1846954,"lon":24.9625101,"tags":{"natural":"tree"}},{"type":"node","id":8831931946,"lat":60.185016,"lon":24.9612512,"tags":{"access":"private","addr:housenumber":"17a","addr:street":"H\u00e4meentie","entrance":"staircase"}},{"type":"node","id":8861960499,"lat":60.1852422,"lon":24.9624413,"tags":{"access":"private","addr:housenumber":"4b","addr:street":"Lintulahdenaukio","addr:unit":"C","description":"With buzzer","entrance":"staircase"}},{"type":"node","id":8861964952,"lat":60.1847071,"lon":24.9621241,"tags":{"access":"private","addr:housenumber":"6","addr:street":"Lintulahdenaukio","description":"With buzzer","entrance":"staircase"}}]}