{"version":0.6,"generator":"Overpass API 0.7.62.5 1bd436f1","osm3s":{"timestamp_osm_base":"2025-03-12T12:17:00Z","copyright":"The data included in this document is from www.openstreetmap.org. The data is made available under ODbL."},"elements":[{"type":"node","id":247360445,"lat":60.1895453,"lon":24.952886,"tags":{"button_operated":"no","crossing":"traffic_signals","crossing:island":"no","highway":"crossing"}},{"type":"node","id":314065988,"lat":60.1898449,"lon":24.9519533,"tags":{"bench":"yes","bin":"yes","highway":"bus_stop","kaukoliikenne":"yes","lit":"yes","name":"Fleminginkatu","name:fi":"Fleminginkatu","name:sv":"Flemingsgatan","public_transport":"platform","railway":"tram_stop","ref":"H0653","shelter":"yes","wheelchair":"yes","zone:HSL":"A"}},{"type":"node","id":354874136,"lat":60.1895324,"lon":24.9526317,"tags":{"button_operated":"yes","crossing":"traffic_signals","highway":"crossing","traffic_signals:sound":"no","traffic_signals:vibration":"no"}},{"type":"node","id":354874140,"lat":60.1896528,"lon":24.9526395,"tags":{"button_operated":"yes","crossing":"traffic_signals","highway":"crossing","traffic_signals:sound":"no","traffic_signals:vibration":"no"}},{"type":"node","id":354874141,"lat":60.1895474,"lon":24.9525547,"tags":{"highway":"traffic_signals"}},{"type":"node","id":354874142,"lat":60.1893966,"lon":24.952918,"tags":{"button_operated":"no","crossing":"traffic_signals","crossing:island":"no","highway":"crossing","traffic_signals:sound":"no","traffic_signals:vibration":"no"}},{"type":"node","id":354874144,"lat":60.189393,"lon":24.9529385,"tags":{"button_operated":"no","crossing":"traffic_signals","highway":"crossing","traffic_signals:sound":"no","traffic_signals:vibration":"no"}},{"type":"node","id":354874457,"lat":60.1899225,"lon":24.9529924,"tags":{"man_made":"surveillance"}},{"type":"node","id":354876481,"lat":60.1897221,"lon":24.9528642,"tags":{"button_operated":"no","crossing":"traffic_signals","crossing:island":"no","ele":"18","highway":"crossing","source:ele":"barometric*1","traffic_signals:sound":"no","traffic_signals:vibration":"no"}},{"type":"node","id":434619436,"lat":60.1895516,"lon":24.9522174,"tags":{"bus":"yes","highway":"bus_stop","name":"Fleminginkatu","name:fi":"Fleminginkatu","name:sv":"Flemingsgatan","network":"HSL","network:wikidata":"Q473211","note":"Temporal location for bus stop","public_transport":"platform","ref":"H2156","website":"https:\/\/reittiopas.hsl.fi\/pysakit\/HSL%3A1220123","zone:HSL":"A"}},{"type":"node","id":492008660,"lat":60.1897846,"lon":24.9524033,"tags":{"addr:city":"Helsinki","addr:country":"FI","addr:housenumber":"11","addr:postcode":"00510","addr:street":"Aleksis Kiven katu","amenity":"atm","cash_in":"no","check_date":"2024-03-27","indoor":"no","name":"Nosto","operator":"Nokas CMS Oy","website":"https:\/\/nostoautomaatti.fi\/","wheelchair":"yes"}},{"type":"node","id":492008661,"lat":60.1898677,"lon":24.9526865,"tags":{"amenity":"post_box","collection_times":"Mo-Fr 14:00"}},{"type":"node","id":648218685,"lat":60.1895575,"lon":24.9517797,"tags":{"addr:city":"Helsinki","addr:country":"FI","addr:housenumber":"32","addr:postcode":"00510","addr:street":"Aleksis Kiven katu","name":"Suomen tanssitarvike","payment:credit_cards":"yes","payment:debit_cards":"yes","phone":"+358 9 446 788","shoes":"dancing","shop":"shoes","website":"https:\/\/www.tanssitarvike.fi\/","wheelchair":"yes"}},{"type":"node","id":648218686,"lat":60.1893947,"lon":24.9520805,"tags":{"addr:city":"Helsinki","addr:country":"FI","addr:housenumber":"30","addr:postcode":"00510","addr:street":"Aleksis Kiven katu","name":"Decov\u00e4ri","payment:credit_cards":"yes","payment:debit_cards":"yes","phone":"+358 9 737 286","shop":"paint","website":"https:\/\/www.decovari.fi\/","wheelchair":"yes"}},{"type":"node","id":670252290,"lat":60.1895858,"lon":24.9518061,"tags":{"addr:city":"Helsinki","addr:country":"FI","addr:housenumber":"32","addr:street":"Aleksis Kiven katu"}},{"type":"node","id":670252291,"lat":60.1893993,"lon":24.9523651,"tags":{"addr:city":"Helsinki","addr:country":"FI","addr:housenumber":"30","addr:street":"Aleksis Kiven katu"}},{"type":"node","id":670255667,"lat":60.1897014,"lon":24.9530202,"tags":{"addr:unit":"A","entrance":"yes","ref":"A"}},{"type":"node","id":672967930,"lat":60.1894039,"lon":24.9528629,"tags":{"button_operated":"no","crossing":"traffic_signals","highway":"crossing","traffic_signals:sound":"no","traffic_signals:vibration":"no"}},{"type":"node","id":878716706,"lat":60.1893837,"lon":24.9529177,"tags":{"highway":"traffic_signals","highway:give_way":"yes"}},{"type":"node","id":1396205355,"lat":60.189647,"lon":24.9522732,"tags":{"hole:diameter":"60 cm","label":"KAASU","man_made":"manhole","manhole":"gas"}},{"type":"node","id":1396829654,"lat":60.1896789,"lon":24.951898,"tags":{"lane:starts":"left"}},{"type":"node","id":1396850318,"lat":60.1895064,"lon":24.9529486,"tags":{"diameter":"300","dir_ref":"AK","hole:diameter":"20 cm","man_made":"manhole","manhole":"water","marker:shape":"vertical oval on a rectangle"}},{"type":"node","id":1396850320,"lat":60.1895172,"lon":24.952948,"tags":{"diameter":"150","dir_ref":"AK","hole:diameter":"20 cm","man_made":"manhole","manhole":"water","marker:shape":"vertical oval on a rectangle"}},{"type":"node","id":1396850322,"lat":60.1895148,"lon":24.9529102,"tags":{"diameter":"150","dir_ref":"AK","hole:diameter":"20 cm","man_made":"manhole","manhole":"water","marker:shape":"vertical oval on a rectangle"}},{"type":"node","id":1396850325,"lat":60.1895241,"lon":24.9529145,"tags":{"diameter":"300","emergency":"fire_hydrant","fire_hydrant:position":"lane","fire_hydrant:type":"underground","location":"underground"}},{"type":"node","id":1396850326,"lat":60.1895215,"lon":24.9529111,"tags":{"diameter":"300","dir_ref":"AK","hole:diameter":"20 cm","man_made":"manhole","manhole":"water","marker:shape":"vertical oval on a rectangle"}},{"type":"node","id":1406192185,"lat":60.1898937,"lon":24.9520772,"tags":{"addr:city":"Helsinki","addr:country":"FI","addr:housenumber":"11a","addr:postcode":"00510","addr:street":"Aleksis Kiven katu"}},{"type":"node","id":1525450275,"lat":60.1898457,"lon":24.9524782,"tags":{"addr:city":"Helsinki","addr:country":"FI","addr:housenumber":"11","addr:postcode":"00510","addr:street":"Aleksis Kiven katu","branch":"Vallila","brand":"S-market","brand:wikidata":"Q11891613","diet:halal":"no","diet:kosher":"no","name":"S-market","opening_hours":"Mo-Fr 06:30-24:00; Sa 07:00-24:00; Su 09:00-24:00","operator":"HOK-Elanto Liiketoiminta Oy","payment:credit_cards":"yes","payment:debit_cards":"yes","phone":"+358107662600","shop":"supermarket","website":"https:\/\/www.s-kaupat.fi\/myymala\/s-market-vallila\/542867783","wheelchair":"yes"}},{"type":"node","id":1820609421,"lat":60.1893957,"lon":24.9522403,"tags":{"disused:shop":"second_hand"}},{"type":"node","id":1820609505,"lat":60.1895261,"lon":24.9520687,"tags":{"man_made":"flagpole"}},{"type":"node","id":2345412100,"lat":60.1898894,"lon":24.9525905,"tags":{"addr:city":"Helsinki","addr:housenumber":"11","addr:postcode":"00510","addr:street":"Aleksis Kiven katu","name":"Kukkakauppa Puntti","opening_hours":"Mo-Fr 09:00-18:00; Sa 09:00-18:00","payment:credit_cards":"yes","payment:debit_cards":"yes","shop":"florist","website":"https:\/\/www.kukkakauppapuntti.fi\/","wheelchair":"yes"}},{"type":"node","id":2434823949,"lat":60.1895478,"lon":24.9530618,"tags":{"traffic_sign":"FI:331","traffic_signals":"signal","traffic_signals:foot":"yes"}},{"type":"node","id":2434823950,"lat":60.1895516,"lon":24.9527069,"tags":{"traffic_sign":"FI:331"}},{"type":"node","id":2434823951,"lat":60.1896008,"lon":24.9527102,"tags":{"traffic_signals":"signal","traffic_signals:motor_vehicle":"yes"}},{"type":"node","id":2434823953,"lat":60.1896296,"lon":24.9525816,"tags":{"traffic_sign":"FI:422","traffic_signals":"signal","traffic_signals:foot":"yes"}},{"type":"node","id":2434823959,"lat":60.1896873,"lon":24.9526749,"tags":{"traffic_sign":"FI:372"}},{"type":"node","id":2434827946,"lat":60.1897581,"lon":24.9527602,"tags":{"traffic_sign":"FI:231","traffic_sign:2":"FI:511;FI:511","traffic_signals":"signal","traffic_signals:foot":"yes","traffic_signals:motor_vehicle":"yes"}},{"type":"node","id":2451383796,"lat":60.1893864,"lon":24.9528082,"tags":{"traffic_sign":"FI:372","traffic_sign:2":"FI:855a[9-21]","traffic_sign:3":"FI:871[Vy\u00f6hyke 3 Ei koske P-tunnuksella J]","traffic_sign:4":"FI:871[\u2190 Lippuautomaatti]"}},{"type":"node","id":2451383806,"lat":60.1894019,"lon":24.9527881,"tags":{"man_made":"utility_pole","material":"steel","traffic_sign":"FI:511;FI:511","traffic_signals":"signal","traffic_signals:foot":"yes"}},{"type":"node","id":2451383813,"lat":60.1895103,"lon":24.9525673,"tags":{"traffic_sign":"FI:511;FI:511","traffic_signals":"signal","traffic_signals:foot":"yes","traffic_signals:motor_vehicle":"yes","traffic_signals:tram":"yes"}},{"type":"node","id":2460259764,"lat":60.1895364,"lon":24.9530555,"tags":{"traffic_signals":"signal","traffic_signals:bicycle":"yes","traffic_signals:motor_vehicle":"yes"}},{"type":"node","id":2538835659,"lat":60.1895655,"lon":24.9525623,"tags":{"traffic_sign":"FI:511;FI:511","traffic_signals":"signal","traffic_signals:button":"yes","traffic_signals:foot":"yes"}},{"type":"node","id":2538835660,"lat":60.1895699,"lon":24.9525788,"tags":{"man_made":"utility_pole","material":"steel","traffic_sign":"FI:332"}},{"type":"node","id":2538835662,"lat":60.189724,"lon":24.9529631,"tags":{"traffic_signals":"signal","traffic_signals:foot":"yes"}},{"type":"node","id":2538835665,"lat":60.1898353,"lon":24.9519829,"tags":{"traffic_sign":"FI:533;FI:532","traffic_sign:2":"FI:531"}},{"type":"node","id":2694506863,"lat":60.1900108,"lon":24.9529906,"tags":{"traffic_sign":"FI:342","traffic_sign:2":"FI:871"}},{"type":"node","id":3631937333,"lat":60.18986,"lon":24.9523275,"tags":{"addr:city":"Helsinki","addr:housenumber":"11","addr:postcode":"00510","addr:street":"Aleksis Kiven katu","laundry_service":"no","name":"24 Pesula","opening_hours":"Mo-Fr 07:00-21:00; Sa 07:00-18:00; Su 12:00-18:00","payment:credit_cards":"yes","payment:debit_cards":"yes","self_service":"yes","shop":"laundry","website":"https:\/\/24pesula.fi\/pesulat\/helsinki\/helsinki-vallila\/","wheelchair":"yes"}},{"type":"node","id":4810167340,"lat":60.1895417,"lon":24.9521601,"tags":{"addr:city":"Helsinki","alt_name":"kaupunkipy\u00f6r\u00e4","alt_name:en":"city bike","alt_name:sv":"stadscykel","amenity":"bicycle_rental","bicycle_rental":"docking_station","capacity":"22","name":"Fleminginkatu","name:en":"Fleminginkatu","name:sv":"Flemingsgatan","network":"Helsinki&Espoo","opening_hours":"24\/7","operator":"City Bike Finland","payment:american_express":"yes","payment:cash":"no","payment:mastercard":"yes","payment:visa":"yes","ref":"118","seasonal":"spring;summer;autumn","website":"https:\/\/hsl.fi\/kaupunkipyorat"}},{"type":"node","id":5899975932,"lat":60.189749,"lon":24.9528612,"tags":{"highway":"traffic_signals","highway:give_way":"yes"}},{"type":"node","id":6889402724,"lat":60.1897893,"lon":24.9518037,"tags":{"leaf_type":"broadleaved","natural":"tree"}},{"type":"node","id":6889402725,"lat":60.18973,"lon":24.9518421,"tags":{"leaf_type":"broadleaved","natural":"tree"}},{"type":"node","id":6889402726,"lat":60.1897552,"lon":24.9519507,"tags":{"leaf_type":"broadleaved","natural":"tree"}},{"type":"node","id":6889402727,"lat":60.1896951,"lon":24.9519874,"tags":{"leaf_type":"broadleaved","natural":"tree"}},{"type":"node","id":6889402728,"lat":60.1897235,"lon":24.9521008,"tags":{"leaf_type":"broadleaved","natural":"tree"}},{"type":"node","id":6889402729,"lat":60.1896586,"lon":24.9521433,"tags":{"leaf_type":"broadleaved","natural":"tree"}},{"type":"node","id":6889402730,"lat":60.1896915,"lon":24.9522486,"tags":{"leaf_type":"broadleaved","natural":"tree"}},{"type":"node","id":6889402731,"lat":60.189631,"lon":24.9522918,"tags":{"leaf_type":"broadleaved","natural":"tree"}},{"type":"node","id":6889402732,"lat":60.1896606,"lon":24.952402,"tags":{"leaf_type":"broadleaved","natural":"tree"}},{"type":"node","id":6889402733,"lat":60.1896006,"lon":24.9524428,"tags":{"leaf_type":"broadleaved","natural":"tree"}},{"type":"node","id":6889402734,"lat":60.1896326,"lon":24.9525245,"tags":{"leaf_type":"broadleaved","natural":"tree"}},{"type":"node","id":6889402736,"lat":60.1895787,"lon":24.9525845,"tags":{"man_made":"utility_pole","material":"steel"}},{"type":"node","id":6889402749,"lat":60.1896789,"lon":24.95206,"tags":{"man_made":"utility_pole","material":"steel"}},{"type":"node","id":6889402750,"lat":60.1896156,"lon":24.9523702,"tags":{"man_made":"utility_pole","material":"steel"}},{"type":"node","id":6889402751,"lat":60.1896448,"lon":24.9524739,"tags":{"man_made":"utility_pole","material":"steel"}},{"type":"node","id":9287781944,"lat":60.1895531,"lon":24.9530148,"tags":{"denotation":"street","leaf_cycle":"deciduous","leaf_type":"broadleaved","natural":"tree","species":"Tilia x europaea","species:fi":"Puistolehmus","species:wikidata":"Q163760","species:wikipedia":"fi:Puistolehmus"}},{"type":"node","id":9983123199,"lat":60.1897928,"lon":24.952582,"tags":{"access":"yes","amenity":"bicycle_parking","bicycle_parking":"stands","capacity":"16","covered":"no","fee":"no"}},{"type":"node","id":11741860019,"lat":60.1898249,"lon":24.9525907,"tags":{"entrance":"shop"}},{"type":"node","id":12108640191,"lat":60.1896645,"lon":24.9526422,"tags":{"button_operated":"yes","crossing":"traffic_signals","highway":"crossing","traffic_signals:sound":"no","traffic_signals:vibration":"no"}}]}